{
 "10153891878513492": {
  "location": {
   "0": {
    "location": {
     "city": "Singapore", 
     "zip": "119244", 
     "country": "Singapore", 
     "longitude": 103.77328088643, 
     "street": "11 Kent Ridge Drive", 
     "latitude": 1.2930908701343
    }, 
    "id": "154949914560762", 
    "name": "Shaw Foundation Alumni House"
   }
  }
 }, 
 "10205146687060352": {
  "location": {
   "0": {
    "location": {
     "city": "Singapore", 
     "zip": "138607", 
     "country": "Singapore", 
     "longitude": 103.77340246806, 
     "street": "2 College Avenue West, #01-02 Stephen Riady Centre", 
     "latitude": 1.3048918342112
    }, 
    "id": "161192807267810", 
    "name": "NUS UTown"
   }
  }
 }, 
 "10206303772732369": {
  "location": {
   "0": {
    "location": {
     "latitude": 25.153848555193, 
     "city": "Dubai", 
     "longitude": 55.375735678774, 
     "country": "United Arab Emirates"
    }, 
    "id": "108226382533047", 
    "name": "Dubai Modern High School"
   }, 
   "1": {
    "location": {
     "latitude": 25.153848555193, 
     "city": "Dubai", 
     "longitude": 55.375735678774, 
     "country": "United Arab Emirates"
    }, 
    "id": "108226382533047", 
    "name": "Dubai Modern High School"
   }
  }
 }, 
 "10152887523528580": {
  "location": {
   "0": {
    "location": {
     "city": "Singapore", 
     "zip": "737919", 
     "country": "Singapore", 
     "longitude": 103.78617104895, 
     "street": "25 Rosewood Drive", 
     "latitude": 1.4304260062671
    }, 
    "id": "129518463783873", 
    "name": "Casablanca Condo"
   }
  }
 }, 
 "10153681580539951": {
  "location": {
   "0": {
    "location": {
     "city": "Singapore", 
     "zip": "119244", 
     "country": "Singapore", 
     "longitude": 103.77328088643, 
     "street": "11 Kent Ridge Drive", 
     "latitude": 1.2930908701343
    }, 
    "id": "154949914560762", 
    "name": "Shaw Foundation Alumni House"
   }
  }
 }, 
 "10204457910551758": {
  "location": {
   "0": {
    "location": {
     "city": "Singapore", 
     "zip": "119077", 
     "country": "Singapore", 
     "longitude": 103.77199228062, 
     "street": "21 Lower Kent Ridge Road, Singapore 119077", 
     "latitude": 1.2994982051199
    }, 
    "id": "176017608539", 
    "name": "National University of Singapore"
   }
  }
 }, 
 "10205361605856422": {
  "location": {
   "0": {
    "location": {
     "city": "Singapore", 
     "zip": "138607", 
     "country": "Singapore", 
     "longitude": 103.77340246806, 
     "street": "2 College Avenue West, #01-02 Stephen Riady Centre", 
     "latitude": 1.3048918342112
    }, 
    "id": "161192807267810", 
    "name": "NUS UTown"
   }
  }
 }, 
 "10155295656785099": {
  "location": {
   "0": {
    "location": {
     "city": "Singapore", 
     "zip": "179021", 
     "country": "Singapore", 
     "longitude": 103.84514452416, 
     "street": "3B River Valley Road. Clarke Quay, The Foundry. #01-08", 
     "latitude": 1.2906662756262
    }, 
    "id": "503767193032453", 
    "name": "f.Club Singapore"
   }
  }
 }, 
 "10152629302162455": {
  "location": {
   "0": {
    "location": {
     "city": "Singapore", 
     "zip": "119244", 
     "country": "Singapore", 
     "longitude": 103.77328088643, 
     "street": "11 Kent Ridge Drive", 
     "latitude": 1.2930908701343
    }, 
    "id": "154949914560762", 
    "name": "Shaw Foundation Alumni House"
   }
  }
 }, 
 "10153050612696558": {
  "location": {
   "0": {
    "location": {
     "city": "Singapore", 
     "zip": "449035", 
     "country": "Singapore", 
     "longitude": 103.9198217678, 
     "street": "20 Marine Vista", 
     "latitude": 1.3062203063941
    }, 
    "id": "171751489503613", 
    "name": "Victoria Junior College"
   }, 
   "1": {
    "location": {
     "city": "Singapore", 
     "zip": "449035", 
     "country": "Singapore", 
     "longitude": 103.9198217678, 
     "street": "20 Marine Vista", 
     "latitude": 1.3062203063941
    }, 
    "id": "171751489503613", 
    "name": "Victoria Junior College"
   }, 
   "2": {
    "location": {
     "city": "Singapore", 
     "zip": "081007", 
     "country": "Singapore", 
     "longitude": 103.84339729549, 
     "street": "APT/BLK 7 TANJONG PAGAR PLAZA #01-104B", 
     "latitude": 1.2767333055917
    }, 
    "id": "148746791950619", 
    "name": "Ikkousha Hakata Ramen Singapore - \u535a\u591a\u4e00\u5e78\u820e"
   }, 
   "3": {
    "location": {
     "city": "Singapore", 
     "zip": "081007", 
     "country": "Singapore", 
     "longitude": 103.84339729549, 
     "street": "APT/BLK 7 TANJONG PAGAR PLAZA #01-104B", 
     "latitude": 1.2767333055917
    }, 
    "id": "148746791950619", 
    "name": "Ikkousha Hakata Ramen Singapore - \u535a\u591a\u4e00\u5e78\u820e"
   }, 
   "4": {
    "location": {
     "latitude": 1.3117748332183, 
     "city": "Singapore", 
     "zip": "27", 
     "longitude": 103.79538306369, 
     "country": "Singapore"
    }, 
    "id": "413299885392158", 
    "name": "D'goodcafe"
   }, 
   "5": {
    "location": {
     "latitude": 1.3117748332183, 
     "city": "Singapore", 
     "zip": "27", 
     "longitude": 103.79538306369, 
     "country": "Singapore"
    }, 
    "id": "413299885392158", 
    "name": "D'goodcafe"
   }, 
   "6": {
    "location": {
     "latitude": 1.3117748332183, 
     "city": "Singapore", 
     "zip": "27", 
     "longitude": 103.79538306369, 
     "country": "Singapore"
    }, 
    "id": "413299885392158", 
    "name": "D'goodcafe"
   }, 
   "7": {
    "location": {
     "latitude": 1.3117748332183, 
     "city": "Singapore", 
     "zip": "27", 
     "longitude": 103.79538306369, 
     "country": "Singapore"
    }, 
    "id": "413299885392158", 
    "name": "D'goodcafe"
   }, 
   "8": {
    "location": {
     "latitude": 1.3117748332183, 
     "city": "Singapore", 
     "zip": "27", 
     "longitude": 103.79538306369, 
     "country": "Singapore"
    }, 
    "id": "413299885392158", 
    "name": "D'goodcafe"
   }, 
   "9": {
    "location": {
     "city": "Singapore", 
     "zip": "138597 ", 
     "country": "Singapore", 
     "longitude": 103.77375402004, 
     "street": "Tembusu College Office University Town, NUS 26 College Avenue East, #B1-01", 
     "latitude": 1.3059742186871
    }, 
    "id": "131344286953020", 
    "name": "Tembusu College"
   }, 
   "10": {
    "location": {
     "city": "Singapore", 
     "zip": "138597 ", 
     "country": "Singapore", 
     "longitude": 103.77375402004, 
     "street": "Tembusu College Office University Town, NUS 26 College Avenue East, #B1-01", 
     "latitude": 1.3059742186871
    }, 
    "id": "131344286953020", 
    "name": "Tembusu College"
   }, 
   "11": {
    "location": {
     "city": "Singapore", 
     "zip": "138597 ", 
     "country": "Singapore", 
     "longitude": 103.77375402004, 
     "street": "Tembusu College Office University Town, NUS 26 College Avenue East, #B1-01", 
     "latitude": 1.3059742186871
    }, 
    "id": "131344286953020", 
    "name": "Tembusu College"
   }
  }
 }, 
 "793616324055281": {
  "location": {
   "0": {
    "location": {
     "city": "Abu Dhabi", 
     "zip": "02", 
     "country": "United Arab Emirates", 
     "longitude": 54.62641, 
     "street": "Yas Island", 
     "latitude": 24.31561
    }, 
    "id": "232001520191613", 
    "name": "Yas Island, Abu Dhab\u0131"
   }
  }
 }, 
 "698681392008": {
  "location": {
   "0": {
    "location": {
     "city": "Singapore", 
     "zip": "737919", 
     "country": "Singapore", 
     "longitude": 103.78617104895, 
     "street": "25 Rosewood Drive", 
     "latitude": 1.4304260062671
    }, 
    "id": "129518463783873", 
    "name": "Casablanca Condo"
   }
  }
 }, 
 "623786964418260": {
  "location": {
   "0": {
    "location": {
     "city": "Singapore", 
     "zip": "119244", 
     "country": "Singapore", 
     "longitude": 103.77328088643, 
     "street": "11 Kent Ridge Drive", 
     "latitude": 1.2930908701343
    }, 
    "id": "154949914560762", 
    "name": "Shaw Foundation Alumni House"
   }
  }
 }, 
 "10206314219436074": {
  "location": {
   "0": {
    "location": {
     "latitude": 25.153455689762, 
     "city": "Dubai", 
     "longitude": 55.375977394236, 
     "country": "United Arab Emirates"
    }, 
    "id": "211589962195554", 
    "name": "Dubai Modern High"
   }
  }
 }, 
 "10153097976468972": {
  "location": {
   "0": {
    "location": {
     "city": "Singapore", 
     "zip": "138597 ", 
     "country": "Singapore", 
     "longitude": 103.77375402004, 
     "street": "Tembusu College Office University Town, NUS 26 College Avenue East, #B1-01", 
     "latitude": 1.3059742186871
    }, 
    "id": "131344286953020", 
    "name": "Tembusu College"
   }, 
   "1": {
    "location": {
     "city": "Singapore", 
     "zip": "138597 ", 
     "country": "Singapore", 
     "longitude": 103.77375402004, 
     "street": "Tembusu College Office University Town, NUS 26 College Avenue East, #B1-01", 
     "latitude": 1.3059742186871
    }, 
    "id": "131344286953020", 
    "name": "Tembusu College"
   }
  }
 }, 
 "10205063836667049": {
  "location": {
   "0": {
    "location": {
     "city": "Singapore", 
     "zip": "119244", 
     "country": "Singapore", 
     "longitude": 103.77328088643, 
     "street": "11 Kent Ridge Drive", 
     "latitude": 1.2930908701343
    }, 
    "id": "154949914560762", 
    "name": "Shaw Foundation Alumni House"
   }
  }
 }, 
 "10205309726717091": {
  "location": {
   "0": {
    "location": {
     "city": "Singapore", 
     "zip": "119077", 
     "country": "Singapore", 
     "longitude": 103.77199228062, 
     "street": "21 Lower Kent Ridge Road, Singapore 119077", 
     "latitude": 1.2994982051199
    }, 
    "id": "176017608539", 
    "name": "National University of Singapore"
   }
  }
 }, 
 "10205540401084728": {
  "location": {
   "0": {
    "location": {
     "city": "Singapore", 
     "zip": "138597 ", 
     "country": "Singapore", 
     "longitude": 103.77375402004, 
     "street": "Tembusu College Office University Town, NUS 26 College Avenue East, #B1-01", 
     "latitude": 1.3059742186871
    }, 
    "id": "131344286953020", 
    "name": "Tembusu College"
   }
  }
 }, 
 "112550198757126": {
  "location": {
   "0": {
    "location": {
     "latitude": 25.091020937395, 
     "city": "Dubai", 
     "longitude": 55.145079599736, 
     "country": "United Arab Emirates"
    }, 
    "id": "201915756516496", 
    "name": "Dubai International Marine Club (DIMC)."
   }
  }
 }, 
 "10153402255144523": {
  "location": {
   "0": {
    "location": {
     "city": "Singapore", 
     "zip": "138607", 
     "country": "Singapore", 
     "longitude": 103.77340246806, 
     "street": "2 College Avenue West, #01-02 Stephen Riady Centre", 
     "latitude": 1.3048918342112
    }, 
    "id": "161192807267810", 
    "name": "NUS UTown"
   }
  }
 }, 
 "10203608563400623": {
  "location": {
   "0": {
    "location": {
     "city": "Singapore", 
     "zip": "138607", 
     "country": "Singapore", 
     "longitude": 103.77340246806, 
     "street": "2 College Avenue West, #01-02 Stephen Riady Centre", 
     "latitude": 1.3048918342112
    }, 
    "id": "161192807267810", 
    "name": "NUS UTown"
   }
  }
 }, 
 "10204281810710101": {
  "location": {
   "0": {
    "location": {
     "city": "Singapore", 
     "zip": "119077", 
     "country": "Singapore", 
     "longitude": 103.77199228062, 
     "street": "21 Lower Kent Ridge Road, Singapore 119077", 
     "latitude": 1.2994982051199
    }, 
    "id": "176017608539", 
    "name": "National University of Singapore"
   }
  }
 }, 
 "861369283920333": {
  "location": {
   "0": {
    "location": {
     "city": "Singapore", 
     "zip": "119244", 
     "country": "Singapore", 
     "longitude": 103.77328088643, 
     "street": "11 Kent Ridge Drive", 
     "latitude": 1.2930908701343
    }, 
    "id": "154949914560762", 
    "name": "Shaw Foundation Alumni House"
   }
  }
 }, 
 "10206315521232075": {
  "location": {
   "0": {
    "location": {
     "latitude": 25.153848555193, 
     "city": "Dubai", 
     "longitude": 55.375735678774, 
     "country": "United Arab Emirates"
    }, 
    "id": "108226382533047", 
    "name": "Dubai Modern High School"
   }, 
   "1": {
    "location": {
     "latitude": 25.153455689762, 
     "city": "Dubai", 
     "longitude": 55.375977394236, 
     "country": "United Arab Emirates"
    }, 
    "id": "211589962195554", 
    "name": "Dubai Modern High"
   }
  }
 }, 
 "10203648666164947": {
  "location": {
   "0": {
    "location": {
     "city": "Singapore", 
     "zip": "119244", 
     "country": "Singapore", 
     "longitude": 103.77328088643, 
     "street": "11 Kent Ridge Drive", 
     "latitude": 1.2930908701343
    }, 
    "id": "154949914560762", 
    "name": "Shaw Foundation Alumni House"
   }
  }
 }, 
 "10205571252536052": {
  "location": {
   "0": {
    "location": {
     "city": "Singapore", 
     "zip": "138597 ", 
     "country": "Singapore", 
     "longitude": 103.77375402004, 
     "street": "Tembusu College Office University Town, NUS 26 College Avenue East, #B1-01", 
     "latitude": 1.3059742186871
    }, 
    "id": "131344286953020", 
    "name": "Tembusu College"
   }, 
   "1": {
    "location": {
     "city": "Singapore", 
     "zip": "138597 ", 
     "country": "Singapore", 
     "longitude": 103.77375402004, 
     "street": "Tembusu College Office University Town, NUS 26 College Avenue East, #B1-01", 
     "latitude": 1.3059742186871
    }, 
    "id": "131344286953020", 
    "name": "Tembusu College"
   }, 
   "2": {
    "location": {
     "city": "Singapore", 
     "zip": "138597 ", 
     "country": "Singapore", 
     "longitude": 103.77375402004, 
     "street": "Tembusu College Office University Town, NUS 26 College Avenue East, #B1-01", 
     "latitude": 1.3059742186871
    }, 
    "id": "131344286953020", 
    "name": "Tembusu College"
   }
  }
 }, 
 "10206089323582982": {
  "location": {
   "0": {
    "location": {
     "city": "Singapore", 
     "zip": "449035", 
     "country": "Singapore", 
     "longitude": 103.9198217678, 
     "street": "20 Marine Vista", 
     "latitude": 1.3062203063941
    }, 
    "id": "171751489503613", 
    "name": "Victoria Junior College"
   }, 
   "1": {
    "location": {
     "city": "Singapore", 
     "zip": "449035", 
     "country": "Singapore", 
     "longitude": 103.9198217678, 
     "street": "20 Marine Vista", 
     "latitude": 1.3062203063941
    }, 
    "id": "171751489503613", 
    "name": "Victoria Junior College"
   }, 
   "2": {
    "location": {
     "city": "Singapore", 
     "zip": "081007", 
     "country": "Singapore", 
     "longitude": 103.84339729549, 
     "street": "APT/BLK 7 TANJONG PAGAR PLAZA #01-104B", 
     "latitude": 1.2767333055917
    }, 
    "id": "148746791950619", 
    "name": "Ikkousha Hakata Ramen Singapore - \u535a\u591a\u4e00\u5e78\u820e"
   }, 
   "3": {
    "location": {
     "city": "Singapore", 
     "zip": "081007", 
     "country": "Singapore", 
     "longitude": 103.84339729549, 
     "street": "APT/BLK 7 TANJONG PAGAR PLAZA #01-104B", 
     "latitude": 1.2767333055917
    }, 
    "id": "148746791950619", 
    "name": "Ikkousha Hakata Ramen Singapore - \u535a\u591a\u4e00\u5e78\u820e"
   }, 
   "4": {
    "location": {
     "latitude": 1.3117748332183, 
     "city": "Singapore", 
     "zip": "27", 
     "longitude": 103.79538306369, 
     "country": "Singapore"
    }, 
    "id": "413299885392158", 
    "name": "D'goodcafe"
   }, 
   "5": {
    "location": {
     "latitude": 1.3117748332183, 
     "city": "Singapore", 
     "zip": "27", 
     "longitude": 103.79538306369, 
     "country": "Singapore"
    }, 
    "id": "413299885392158", 
    "name": "D'goodcafe"
   }, 
   "6": {
    "location": {
     "latitude": 1.3117748332183, 
     "city": "Singapore", 
     "zip": "27", 
     "longitude": 103.79538306369, 
     "country": "Singapore"
    }, 
    "id": "413299885392158", 
    "name": "D'goodcafe"
   }, 
   "7": {
    "location": {
     "latitude": 1.3117748332183, 
     "city": "Singapore", 
     "zip": "27", 
     "longitude": 103.79538306369, 
     "country": "Singapore"
    }, 
    "id": "413299885392158", 
    "name": "D'goodcafe"
   }, 
   "8": {
    "location": {
     "latitude": 1.3117748332183, 
     "city": "Singapore", 
     "zip": "27", 
     "longitude": 103.79538306369, 
     "country": "Singapore"
    }, 
    "id": "413299885392158", 
    "name": "D'goodcafe"
   }, 
   "9": {
    "location": {
     "latitude": 1.3117748332183, 
     "city": "Singapore", 
     "zip": "27", 
     "longitude": 103.79538306369, 
     "country": "Singapore"
    }, 
    "id": "413299885392158", 
    "name": "D'goodcafe"
   }, 
   "10": {
    "location": {
     "latitude": 1.3117748332183, 
     "city": "Singapore", 
     "zip": "27", 
     "longitude": 103.79538306369, 
     "country": "Singapore"
    }, 
    "id": "413299885392158", 
    "name": "D'goodcafe"
   }, 
   "11": {
    "location": {
     "latitude": 1.3117748332183, 
     "city": "Singapore", 
     "zip": "27", 
     "longitude": 103.79538306369, 
     "country": "Singapore"
    }, 
    "id": "413299885392158", 
    "name": "D'goodcafe"
   }, 
   "12": {
    "location": {
     "latitude": 1.3117748332183, 
     "city": "Singapore", 
     "zip": "27", 
     "longitude": 103.79538306369, 
     "country": "Singapore"
    }, 
    "id": "413299885392158", 
    "name": "D'goodcafe"
   }, 
   "13": {
    "location": {
     "city": "Singapore", 
     "zip": "138597 ", 
     "country": "Singapore", 
     "longitude": 103.77375402004, 
     "street": "Tembusu College Office University Town, NUS 26 College Avenue East, #B1-01", 
     "latitude": 1.3059742186871
    }, 
    "id": "131344286953020", 
    "name": "Tembusu College"
   }, 
   "14": {
    "location": {
     "city": "Singapore", 
     "zip": "138597 ", 
     "country": "Singapore", 
     "longitude": 103.77375402004, 
     "street": "Tembusu College Office University Town, NUS 26 College Avenue East, #B1-01", 
     "latitude": 1.3059742186871
    }, 
    "id": "131344286953020", 
    "name": "Tembusu College"
   }
  }
 }, 
 "10152600881461326": {
  "location": {
   "0": {
    "location": {
     "city": "Singapore", 
     "zip": "119077", 
     "country": "Singapore", 
     "longitude": 103.77199228062, 
     "street": "21 Lower Kent Ridge Road, Singapore 119077", 
     "latitude": 1.2994982051199
    }, 
    "id": "176017608539", 
    "name": "National University of Singapore"
   }, 
   "1": {
    "location": {
     "city": "Singapore", 
     "zip": "119077", 
     "country": "Singapore", 
     "longitude": 103.77199228062, 
     "street": "21 Lower Kent Ridge Road, Singapore 119077", 
     "latitude": 1.2994982051199
    }, 
    "id": "176017608539", 
    "name": "National University of Singapore"
   }, 
   "2": {
    "location": {
     "city": "Singapore", 
     "zip": "119077", 
     "country": "Singapore", 
     "longitude": 103.77199228062, 
     "street": "21 Lower Kent Ridge Road, Singapore 119077", 
     "latitude": 1.2994982051199
    }, 
    "id": "176017608539", 
    "name": "National University of Singapore"
   }, 
   "3": {
    "location": {
     "city": "Singapore", 
     "zip": "138607", 
     "country": "Singapore", 
     "longitude": 103.77340246806, 
     "street": "2 College Avenue West, #01-02 Stephen Riady Centre", 
     "latitude": 1.3048918342112
    }, 
    "id": "161192807267810", 
    "name": "NUS UTown"
   }
  }
 }, 
 "10204629127702702": {
  "location": {
   "0": {
    "location": {
     "city": "Singapore", 
     "zip": "119244", 
     "country": "Singapore", 
     "longitude": 103.77328088643, 
     "street": "11 Kent Ridge Drive", 
     "latitude": 1.2930908701343
    }, 
    "id": "154949914560762", 
    "name": "Shaw Foundation Alumni House"
   }
  }
 }, 
 "10203648997928481": {
  "location": {
   "0": {
    "location": {
     "city": "Singapore", 
     "zip": "138607", 
     "country": "Singapore", 
     "longitude": 103.77340246806, 
     "street": "2 College Avenue West, #01-02 Stephen Riady Centre", 
     "latitude": 1.3048918342112
    }, 
    "id": "161192807267810", 
    "name": "NUS UTown"
   }, 
   "1": {
    "location": {
     "city": "Singapore", 
     "zip": "138607", 
     "country": "Singapore", 
     "longitude": 103.77340246806, 
     "street": "2 College Avenue West, #01-02 Stephen Riady Centre", 
     "latitude": 1.3048918342112
    }, 
    "id": "161192807267810", 
    "name": "NUS UTown"
   }
  }
 }, 
 "10152742646996009": {
  "location": {
   "0": {
    "location": {
     "city": "Singapore", 
     "zip": "179021", 
     "country": "Singapore", 
     "longitude": 103.84514452416, 
     "street": "3B River Valley Road. Clarke Quay, The Foundry. #01-08", 
     "latitude": 1.2906662756262
    }, 
    "id": "503767193032453", 
    "name": "f.Club Singapore"
   }
  }
 }, 
 "865046906870931": {
  "location": {
   "0": {
    "location": {
     "latitude": 1.29306, 
     "longitude": 103.856, 
     "located_in": "240852582604992"
    }, 
    "id": "101883206519751", 
    "name": "Singapore, Singapore"
   }
  }
 }, 
 "10206411019780127": {
  "location": {
   "0": {
    "location": {
     "city": "Singapore", 
     "zip": "138597 ", 
     "country": "Singapore", 
     "longitude": 103.77375402004, 
     "street": "Tembusu College Office University Town, NUS 26 College Avenue East, #B1-01", 
     "latitude": 1.3059742186871
    }, 
    "id": "131344286953020", 
    "name": "Tembusu College"
   }
  }
 }, 
 "890867984298846": {
  "location": {
   "0": {
    "location": {
     "latitude": 25.153455689762, 
     "city": "Dubai", 
     "longitude": 55.375977394236, 
     "country": "United Arab Emirates"
    }, 
    "id": "211589962195554", 
    "name": "Dubai Modern High"
   }
  }
 }, 
 "1063670900313728": {
  "location": {
   "0": {
    "location": {
     "latitude": 25.153455689762, 
     "city": "Dubai", 
     "longitude": 55.375977394236, 
     "country": "United Arab Emirates"
    }, 
    "id": "211589962195554", 
    "name": "Dubai Modern High"
   }
  }
 }, 
 "1057556430927071": {
  "location": {
   "0": {
    "location": {
     "latitude": 25.153455689762, 
     "city": "Dubai", 
     "longitude": 55.375977394236, 
     "country": "United Arab Emirates"
    }, 
    "id": "211589962195554", 
    "name": "Dubai Modern High"
   }, 
   "1": {
    "location": {
     "city": "Abu Dhabi", 
     "zip": "02", 
     "country": "United Arab Emirates", 
     "longitude": 54.62641, 
     "street": "Yas Island", 
     "latitude": 24.31561
    }, 
    "id": "232001520191613", 
    "name": "Yas Island, Abu Dhab\u0131"
   }
  }
 }, 
 "10153743401063677": {
  "location": {
   "0": {
    "location": {
     "city": "Singapore", 
     "zip": "119077", 
     "country": "Singapore", 
     "longitude": 103.77199228062, 
     "street": "21 Lower Kent Ridge Road, Singapore 119077", 
     "latitude": 1.2994982051199
    }, 
    "id": "176017608539", 
    "name": "National University of Singapore"
   }
  }
 }, 
 "969259836420520": {
  "location": {
   "0": {
    "location": {
     "latitude": 25.153455689762, 
     "city": "Dubai", 
     "longitude": 55.375977394236, 
     "country": "United Arab Emirates"
    }, 
    "id": "211589962195554", 
    "name": "Dubai Modern High"
   }
  }
 }, 
 "10204235455430681": {
  "location": {
   "0": {
    "location": {
     "city": "Singapore", 
     "zip": "138607", 
     "country": "Singapore", 
     "longitude": 103.77340246806, 
     "street": "2 College Avenue West, #01-02 Stephen Riady Centre", 
     "latitude": 1.3048918342112
    }, 
    "id": "161192807267810", 
    "name": "NUS UTown"
   }
  }
 }, 
 "10153015373509792": {
  "location": {
   "0": {
    "location": {
     "latitude": 25.153455689762, 
     "city": "Dubai", 
     "longitude": 55.375977394236, 
     "country": "United Arab Emirates"
    }, 
    "id": "211589962195554", 
    "name": "Dubai Modern High"
   }
  }
 }, 
 "10152857662762561": {
  "location": {
   "0": {
    "location": {
     "city": "Singapore", 
     "zip": "138607", 
     "country": "Singapore", 
     "longitude": 103.77340246806, 
     "street": "2 College Avenue West, #01-02 Stephen Riady Centre", 
     "latitude": 1.3048918342112
    }, 
    "id": "161192807267810", 
    "name": "NUS UTown"
   }
  }
 }, 
 "10153154687857558": {
  "location": {
   "0": {
    "location": {
     "city": "Singapore", 
     "zip": "179021", 
     "country": "Singapore", 
     "longitude": 103.84514452416, 
     "street": "3B River Valley Road. Clarke Quay, The Foundry. #01-08", 
     "latitude": 1.2906662756262
    }, 
    "id": "503767193032453", 
    "name": "f.Club Singapore"
   }
  }
 }, 
 "652652561530795": {
  "location": {
   "0": {
    "location": {
     "city": "Singapore", 
     "zip": "138597 ", 
     "country": "Singapore", 
     "longitude": 103.77375402004, 
     "street": "Tembusu College Office University Town, NUS 26 College Avenue East, #B1-01", 
     "latitude": 1.3059742186871
    }, 
    "id": "131344286953020", 
    "name": "Tembusu College"
   }, 
   "1": {
    "location": {
     "city": "Singapore", 
     "zip": "138597 ", 
     "country": "Singapore", 
     "longitude": 103.77375402004, 
     "street": "Tembusu College Office University Town, NUS 26 College Avenue East, #B1-01", 
     "latitude": 1.3059742186871
    }, 
    "id": "131344286953020", 
    "name": "Tembusu College"
   }
  }
 }, 
 "10206406520381780": {
  "location": {
   "0": {
    "location": {
     "city": "Singapore", 
     "zip": "179021", 
     "country": "Singapore", 
     "longitude": 103.84514452416, 
     "street": "3B River Valley Road. Clarke Quay, The Foundry. #01-08", 
     "latitude": 1.2906662756262
    }, 
    "id": "503767193032453", 
    "name": "f.Club Singapore"
   }, 
   "1": {
    "location": {
     "city": "Singapore", 
     "zip": "119077", 
     "country": "Singapore", 
     "longitude": 103.77199228062, 
     "street": "21 Lower Kent Ridge Road, Singapore 119077", 
     "latitude": 1.2994982051199
    }, 
    "id": "176017608539", 
    "name": "National University of Singapore"
   }, 
   "2": {
    "location": {
     "city": "Singapore", 
     "zip": "119077", 
     "country": "Singapore", 
     "longitude": 103.77199228062, 
     "street": "21 Lower Kent Ridge Road, Singapore 119077", 
     "latitude": 1.2994982051199
    }, 
    "id": "176017608539", 
    "name": "National University of Singapore"
   }, 
   "3": {
    "location": {
     "city": "Singapore", 
     "zip": "138607", 
     "country": "Singapore", 
     "longitude": 103.77340246806, 
     "street": "2 College Avenue West, #01-02 Stephen Riady Centre", 
     "latitude": 1.3048918342112
    }, 
    "id": "161192807267810", 
    "name": "NUS UTown"
   }
  }
 }, 
 "10203689675151718": {
  "location": {
   "0": {
    "location": {
     "latitude": 25.153455689762, 
     "city": "Dubai", 
     "longitude": 55.375977394236, 
     "country": "United Arab Emirates"
    }, 
    "id": "211589962195554", 
    "name": "Dubai Modern High"
   }
  }
 }, 
 "942050092494784": {
  "location": {
   "0": {
    "location": {
     "latitude": 25.153455689762, 
     "city": "Dubai", 
     "longitude": 55.375977394236, 
     "country": "United Arab Emirates"
    }, 
    "id": "211589962195554", 
    "name": "Dubai Modern High"
   }
  }
 }, 
 "10153124406974820": {
  "location": {
   "0": {
    "start_time": "2013-07-05T12:00:00+0400", 
    "location": "Meydan IMAX Theatre", 
    "id": "611735025517280", 
    "name": "IGN Convention"
   }, 
   "1": {
    "location": {
     "latitude": 25.153455689762, 
     "city": "Dubai", 
     "longitude": 55.375977394236, 
     "country": "United Arab Emirates"
    }, 
    "id": "211589962195554", 
    "name": "Dubai Modern High"
   }
  }
 }, 
 "10204742155206827": {
  "location": {
   "0": {
    "location": {
     "latitude": 25.153455689762, 
     "city": "Dubai", 
     "longitude": 55.375977394236, 
     "country": "United Arab Emirates"
    }, 
    "id": "211589962195554", 
    "name": "Dubai Modern High"
   }
  }
 }, 
 "957407394277544": {
  "location": {
   "0": {
    "location": {
     "city": "Singapore", 
     "zip": "119244", 
     "country": "Singapore", 
     "longitude": 103.77328088643, 
     "street": "11 Kent Ridge Drive", 
     "latitude": 1.2930908701343
    }, 
    "id": "154949914560762", 
    "name": "Shaw Foundation Alumni House"
   }
  }
 }, 
 "10202813621140622": {
  "location": {
   "0": {
    "location": {
     "city": "Singapore", 
     "zip": "138607", 
     "country": "Singapore", 
     "longitude": 103.77340246806, 
     "street": "2 College Avenue West, #01-02 Stephen Riady Centre", 
     "latitude": 1.3048918342112
    }, 
    "id": "161192807267810", 
    "name": "NUS UTown"
   }
  }
 }, 
 "431754216983556": {
  "location": {
   "0": {
    "location": {
     "city": "Singapore", 
     "zip": "179021", 
     "country": "Singapore", 
     "longitude": 103.84514452416, 
     "street": "3B River Valley Road. Clarke Quay, The Foundry. #01-08", 
     "latitude": 1.2906662756262
    }, 
    "id": "503767193032453", 
    "name": "f.Club Singapore"
   }
  }
 }, 
 "10205559208516257": {
  "location": {
   "0": {
    "location": {
     "city": "Singapore", 
     "zip": "138607", 
     "country": "Singapore", 
     "longitude": 103.77340246806, 
     "street": "2 College Avenue West, #01-02 Stephen Riady Centre", 
     "latitude": 1.3048918342112
    }, 
    "id": "161192807267810", 
    "name": "NUS UTown"
   }
  }
 }, 
 "10206324403927665": {
  "location": {
   "0": {
    "location": {
     "city": "Singapore", 
     "zip": "119244", 
     "country": "Singapore", 
     "longitude": 103.77328088643, 
     "street": "11 Kent Ridge Drive", 
     "latitude": 1.2930908701343
    }, 
    "id": "154949914560762", 
    "name": "Shaw Foundation Alumni House"
   }
  }
 }, 
 "10206387820520577": {
  "location": {
   "0": {
    "location": {
     "city": "Singapore", 
     "zip": "119077", 
     "country": "Singapore", 
     "longitude": 103.77199228062, 
     "street": "21 Lower Kent Ridge Road, Singapore 119077", 
     "latitude": 1.2994982051199
    }, 
    "id": "176017608539", 
    "name": "National University of Singapore"
   }
  }
 }, 
 "10153226445343436": {
  "location": {
   "0": {
    "location": {
     "city": "Singapore", 
     "zip": "119077", 
     "country": "Singapore", 
     "longitude": 103.77199228062, 
     "street": "21 Lower Kent Ridge Road, Singapore 119077", 
     "latitude": 1.2994982051199
    }, 
    "id": "176017608539", 
    "name": "National University of Singapore"
   }, 
   "1": {
    "location": {
     "city": "Singapore", 
     "zip": "119077", 
     "country": "Singapore", 
     "longitude": 103.77199228062, 
     "street": "21 Lower Kent Ridge Road, Singapore 119077", 
     "latitude": 1.2994982051199
    }, 
    "id": "176017608539", 
    "name": "National University of Singapore"
   }, 
   "2": {
    "location": {
     "city": "Singapore", 
     "zip": "138607", 
     "country": "Singapore", 
     "longitude": 103.77340246806, 
     "street": "2 College Avenue West, #01-02 Stephen Riady Centre", 
     "latitude": 1.3048918342112
    }, 
    "id": "161192807267810", 
    "name": "NUS UTown"
   }
  }
 }, 
 "10203483901132220": {
  "location": {
   "0": {
    "location": {
     "city": "Singapore", 
     "zip": "449035", 
     "country": "Singapore", 
     "longitude": 103.9198217678, 
     "street": "20 Marine Vista", 
     "latitude": 1.3062203063941
    }, 
    "id": "171751489503613", 
    "name": "Victoria Junior College"
   }, 
   "1": {
    "location": {
     "city": "Singapore", 
     "zip": "449035", 
     "country": "Singapore", 
     "longitude": 103.9198217678, 
     "street": "20 Marine Vista", 
     "latitude": 1.3062203063941
    }, 
    "id": "171751489503613", 
    "name": "Victoria Junior College"
   }, 
   "2": {
    "location": {
     "city": "Singapore", 
     "zip": "081007", 
     "country": "Singapore", 
     "longitude": 103.84339729549, 
     "street": "APT/BLK 7 TANJONG PAGAR PLAZA #01-104B", 
     "latitude": 1.2767333055917
    }, 
    "id": "148746791950619", 
    "name": "Ikkousha Hakata Ramen Singapore - \u535a\u591a\u4e00\u5e78\u820e"
   }, 
   "3": {
    "location": {
     "city": "Singapore", 
     "zip": "081007", 
     "country": "Singapore", 
     "longitude": 103.84339729549, 
     "street": "APT/BLK 7 TANJONG PAGAR PLAZA #01-104B", 
     "latitude": 1.2767333055917
    }, 
    "id": "148746791950619", 
    "name": "Ikkousha Hakata Ramen Singapore - \u535a\u591a\u4e00\u5e78\u820e"
   }, 
   "4": {
    "location": {
     "city": "Singapore", 
     "zip": "138597 ", 
     "country": "Singapore", 
     "longitude": 103.77375402004, 
     "street": "Tembusu College Office University Town, NUS 26 College Avenue East, #B1-01", 
     "latitude": 1.3059742186871
    }, 
    "id": "131344286953020", 
    "name": "Tembusu College"
   }, 
   "5": {
    "location": {
     "city": "Singapore", 
     "zip": "138597 ", 
     "country": "Singapore", 
     "longitude": 103.77375402004, 
     "street": "Tembusu College Office University Town, NUS 26 College Avenue East, #B1-01", 
     "latitude": 1.3059742186871
    }, 
    "id": "131344286953020", 
    "name": "Tembusu College"
   }, 
   "6": {
    "location": {
     "city": "Singapore", 
     "zip": "138597 ", 
     "country": "Singapore", 
     "longitude": 103.77375402004, 
     "street": "Tembusu College Office University Town, NUS 26 College Avenue East, #B1-01", 
     "latitude": 1.3059742186871
    }, 
    "id": "131344286953020", 
    "name": "Tembusu College"
   }
  }
 }, 
 "10152794954553284": {
  "location": {
   "0": {
    "location": {
     "city": "Singapore", 
     "zip": "119077", 
     "country": "Singapore", 
     "longitude": 103.77199228062, 
     "street": "21 Lower Kent Ridge Road, Singapore 119077", 
     "latitude": 1.2994982051199
    }, 
    "id": "176017608539", 
    "name": "National University of Singapore"
   }, 
   "1": {
    "location": {
     "city": "Singapore", 
     "zip": "119077", 
     "country": "Singapore", 
     "longitude": 103.77199228062, 
     "street": "21 Lower Kent Ridge Road, Singapore 119077", 
     "latitude": 1.2994982051199
    }, 
    "id": "176017608539", 
    "name": "National University of Singapore"
   }, 
   "2": {
    "location": {
     "city": "Singapore", 
     "zip": "119077", 
     "country": "Singapore", 
     "longitude": 103.77199228062, 
     "street": "21 Lower Kent Ridge Road, Singapore 119077", 
     "latitude": 1.2994982051199
    }, 
    "id": "176017608539", 
    "name": "National University of Singapore"
   }
  }
 }, 
 "10205968798516680": {
  "location": {
   "0": {
    "location": {
     "city": "Singapore", 
     "zip": "179021", 
     "country": "Singapore", 
     "longitude": 103.84514452416, 
     "street": "3B River Valley Road. Clarke Quay, The Foundry. #01-08", 
     "latitude": 1.2906662756262
    }, 
    "id": "503767193032453", 
    "name": "f.Club Singapore"
   }
  }
 }, 
 "10153205394712265": {
  "location": {
   "0": {
    "location": {
     "latitude": 25.153455689762, 
     "city": "Dubai", 
     "longitude": 55.375977394236, 
     "country": "United Arab Emirates"
    }, 
    "id": "211589962195554", 
    "name": "Dubai Modern High"
   }
  }
 }, 
 "10155352159290287": {
  "location": {
   "0": {
    "location": {
     "latitude": 25.153455689762, 
     "city": "Dubai", 
     "longitude": 55.375977394236, 
     "country": "United Arab Emirates"
    }, 
    "id": "211589962195554", 
    "name": "Dubai Modern High"
   }
  }
 }, 
 "10152805735576317": {
  "location": {
   "0": {
    "location": {
     "city": "Singapore", 
     "zip": "449035", 
     "country": "Singapore", 
     "longitude": 103.9198217678, 
     "street": "20 Marine Vista", 
     "latitude": 1.3062203063941
    }, 
    "id": "171751489503613", 
    "name": "Victoria Junior College"
   }, 
   "1": {
    "location": {
     "city": "Singapore", 
     "zip": "449035", 
     "country": "Singapore", 
     "longitude": 103.9198217678, 
     "street": "20 Marine Vista", 
     "latitude": 1.3062203063941
    }, 
    "id": "171751489503613", 
    "name": "Victoria Junior College"
   }, 
   "2": {
    "location": {
     "city": "Singapore", 
     "zip": "081007", 
     "country": "Singapore", 
     "longitude": 103.84339729549, 
     "street": "APT/BLK 7 TANJONG PAGAR PLAZA #01-104B", 
     "latitude": 1.2767333055917
    }, 
    "id": "148746791950619", 
    "name": "Ikkousha Hakata Ramen Singapore - \u535a\u591a\u4e00\u5e78\u820e"
   }, 
   "3": {
    "location": {
     "city": "Singapore", 
     "zip": "081007", 
     "country": "Singapore", 
     "longitude": 103.84339729549, 
     "street": "APT/BLK 7 TANJONG PAGAR PLAZA #01-104B", 
     "latitude": 1.2767333055917
    }, 
    "id": "148746791950619", 
    "name": "Ikkousha Hakata Ramen Singapore - \u535a\u591a\u4e00\u5e78\u820e"
   }, 
   "4": {
    "location": {
     "city": "Singapore", 
     "zip": "138597 ", 
     "country": "Singapore", 
     "longitude": 103.77375402004, 
     "street": "Tembusu College Office University Town, NUS 26 College Avenue East, #B1-01", 
     "latitude": 1.3059742186871
    }, 
    "id": "131344286953020", 
    "name": "Tembusu College"
   }, 
   "5": {
    "location": {
     "city": "Singapore", 
     "zip": "138597 ", 
     "country": "Singapore", 
     "longitude": 103.77375402004, 
     "street": "Tembusu College Office University Town, NUS 26 College Avenue East, #B1-01", 
     "latitude": 1.3059742186871
    }, 
    "id": "131344286953020", 
    "name": "Tembusu College"
   }
  }
 }, 
 "10203270307630918": {
  "location": {
   "0": {
    "location": {
     "city": "Singapore", 
     "zip": "138607", 
     "country": "Singapore", 
     "longitude": 103.77340246806, 
     "street": "2 College Avenue West, #01-02 Stephen Riady Centre", 
     "latitude": 1.3048918342112
    }, 
    "id": "161192807267810", 
    "name": "NUS UTown"
   }
  }
 }, 
 "10204494653992399": {
  "location": {
   "0": {
    "location": {
     "city": "Singapore", 
     "zip": "119244", 
     "country": "Singapore", 
     "longitude": 103.77328088643, 
     "street": "11 Kent Ridge Drive", 
     "latitude": 1.2930908701343
    }, 
    "id": "154949914560762", 
    "name": "Shaw Foundation Alumni House"
   }
  }
 }, 
 "10205200221797735": {
  "location": {
   "0": {
    "location": {
     "city": "Singapore", 
     "zip": "179021", 
     "country": "Singapore", 
     "longitude": 103.84514452416, 
     "street": "3B River Valley Road. Clarke Quay, The Foundry. #01-08", 
     "latitude": 1.2906662756262
    }, 
    "id": "503767193032453", 
    "name": "f.Club Singapore"
   }
  }
 }, 
 "941030085936880": {
  "location": {
   "0": {
    "location": {
     "latitude": 25.153455689762, 
     "city": "Dubai", 
     "longitude": 55.375977394236, 
     "country": "United Arab Emirates"
    }, 
    "id": "211589962195554", 
    "name": "Dubai Modern High"
   }
  }
 }, 
 "925419790824577": {
  "location": {
   "0": {
    "location": {
     "city": "Singapore", 
     "zip": "449035", 
     "country": "Singapore", 
     "longitude": 103.9198217678, 
     "street": "20 Marine Vista", 
     "latitude": 1.3062203063941
    }, 
    "id": "171751489503613", 
    "name": "Victoria Junior College"
   }, 
   "1": {
    "location": {
     "city": "Singapore", 
     "zip": "449035", 
     "country": "Singapore", 
     "longitude": 103.9198217678, 
     "street": "20 Marine Vista", 
     "latitude": 1.3062203063941
    }, 
    "id": "171751489503613", 
    "name": "Victoria Junior College"
   }, 
   "2": {
    "location": {
     "city": "Singapore", 
     "zip": "081007", 
     "country": "Singapore", 
     "longitude": 103.84339729549, 
     "street": "APT/BLK 7 TANJONG PAGAR PLAZA #01-104B", 
     "latitude": 1.2767333055917
    }, 
    "id": "148746791950619", 
    "name": "Ikkousha Hakata Ramen Singapore - \u535a\u591a\u4e00\u5e78\u820e"
   }, 
   "3": {
    "location": {
     "city": "Singapore", 
     "zip": "081007", 
     "country": "Singapore", 
     "longitude": 103.84339729549, 
     "street": "APT/BLK 7 TANJONG PAGAR PLAZA #01-104B", 
     "latitude": 1.2767333055917
    }, 
    "id": "148746791950619", 
    "name": "Ikkousha Hakata Ramen Singapore - \u535a\u591a\u4e00\u5e78\u820e"
   }, 
   "4": {
    "location": {
     "latitude": 1.3117748332183, 
     "city": "Singapore", 
     "zip": "27", 
     "longitude": 103.79538306369, 
     "country": "Singapore"
    }, 
    "id": "413299885392158", 
    "name": "D'goodcafe"
   }, 
   "5": {
    "location": {
     "city": "Singapore", 
     "zip": "138597 ", 
     "country": "Singapore", 
     "longitude": 103.77375402004, 
     "street": "Tembusu College Office University Town, NUS 26 College Avenue East, #B1-01", 
     "latitude": 1.3059742186871
    }, 
    "id": "131344286953020", 
    "name": "Tembusu College"
   }, 
   "6": {
    "location": {
     "city": "Singapore", 
     "zip": "138597 ", 
     "country": "Singapore", 
     "longitude": 103.77375402004, 
     "street": "Tembusu College Office University Town, NUS 26 College Avenue East, #B1-01", 
     "latitude": 1.3059742186871
    }, 
    "id": "131344286953020", 
    "name": "Tembusu College"
   }
  }
 }, 
 "10204668418164413": {
  "location": {
   "0": {
    "location": {
     "city": "Singapore", 
     "zip": "138607", 
     "country": "Singapore", 
     "longitude": 103.77340246806, 
     "street": "2 College Avenue West, #01-02 Stephen Riady Centre", 
     "latitude": 1.3048918342112
    }, 
    "id": "161192807267810", 
    "name": "NUS UTown"
   }
  }
 }, 
 "10204961664032777": {
  "location": {
   "0": {
    "location": {
     "city": "Singapore", 
     "zip": "138607", 
     "country": "Singapore", 
     "longitude": 103.77340246806, 
     "street": "2 College Avenue West, #01-02 Stephen Riady Centre", 
     "latitude": 1.3048918342112
    }, 
    "id": "161192807267810", 
    "name": "NUS UTown"
   }
  }
 }, 
 "10205875239498490": {
  "location": {
   "0": {
    "location": {
     "latitude": 25.153455689762, 
     "city": "Dubai", 
     "longitude": 55.375977394236, 
     "country": "United Arab Emirates"
    }, 
    "id": "211589962195554", 
    "name": "Dubai Modern High"
   }
  }
 }, 
 "10152883019118075": {
  "location": {
   "0": {
    "location": {
     "city": "Singapore", 
     "zip": "081007", 
     "country": "Singapore", 
     "longitude": 103.84339729549, 
     "street": "APT/BLK 7 TANJONG PAGAR PLAZA #01-104B", 
     "latitude": 1.2767333055917
    }, 
    "id": "148746791950619", 
    "name": "Ikkousha Hakata Ramen Singapore - \u535a\u591a\u4e00\u5e78\u820e"
   }, 
   "1": {
    "location": {
     "city": "Singapore", 
     "zip": "081007", 
     "country": "Singapore", 
     "longitude": 103.84339729549, 
     "street": "APT/BLK 7 TANJONG PAGAR PLAZA #01-104B", 
     "latitude": 1.2767333055917
    }, 
    "id": "148746791950619", 
    "name": "Ikkousha Hakata Ramen Singapore - \u535a\u591a\u4e00\u5e78\u820e"
   }, 
   "2": {
    "location": {
     "latitude": 1.3117748332183, 
     "city": "Singapore", 
     "zip": "27", 
     "longitude": 103.79538306369, 
     "country": "Singapore"
    }, 
    "id": "413299885392158", 
    "name": "D'goodcafe"
   }, 
   "3": {
    "location": {
     "city": "Singapore", 
     "zip": "138597 ", 
     "country": "Singapore", 
     "longitude": 103.77375402004, 
     "street": "Tembusu College Office University Town, NUS 26 College Avenue East, #B1-01", 
     "latitude": 1.3059742186871
    }, 
    "id": "131344286953020", 
    "name": "Tembusu College"
   }, 
   "4": {
    "location": {
     "city": "Singapore", 
     "zip": "138597 ", 
     "country": "Singapore", 
     "longitude": 103.77375402004, 
     "street": "Tembusu College Office University Town, NUS 26 College Avenue East, #B1-01", 
     "latitude": 1.3059742186871
    }, 
    "id": "131344286953020", 
    "name": "Tembusu College"
   }
  }
 }, 
 "10202363684172482": {
  "location": {
   "0": {
    "location": {
     "city": "Singapore", 
     "zip": "081007", 
     "country": "Singapore", 
     "longitude": 103.84339729549, 
     "street": "APT/BLK 7 TANJONG PAGAR PLAZA #01-104B", 
     "latitude": 1.2767333055917
    }, 
    "id": "148746791950619", 
    "name": "Ikkousha Hakata Ramen Singapore - \u535a\u591a\u4e00\u5e78\u820e"
   }, 
   "1": {
    "location": {
     "city": "Singapore", 
     "zip": "081007", 
     "country": "Singapore", 
     "longitude": 103.84339729549, 
     "street": "APT/BLK 7 TANJONG PAGAR PLAZA #01-104B", 
     "latitude": 1.2767333055917
    }, 
    "id": "148746791950619", 
    "name": "Ikkousha Hakata Ramen Singapore - \u535a\u591a\u4e00\u5e78\u820e"
   }, 
   "2": {
    "location": {
     "latitude": 1.3117748332183, 
     "city": "Singapore", 
     "zip": "27", 
     "longitude": 103.79538306369, 
     "country": "Singapore"
    }, 
    "id": "413299885392158", 
    "name": "D'goodcafe"
   }, 
   "3": {
    "location": {
     "latitude": 1.3117748332183, 
     "city": "Singapore", 
     "zip": "27", 
     "longitude": 103.79538306369, 
     "country": "Singapore"
    }, 
    "id": "413299885392158", 
    "name": "D'goodcafe"
   }, 
   "4": {
    "location": {
     "latitude": 1.3117748332183, 
     "city": "Singapore", 
     "zip": "27", 
     "longitude": 103.79538306369, 
     "country": "Singapore"
    }, 
    "id": "413299885392158", 
    "name": "D'goodcafe"
   }, 
   "5": {
    "location": {
     "latitude": 1.3117748332183, 
     "city": "Singapore", 
     "zip": "27", 
     "longitude": 103.79538306369, 
     "country": "Singapore"
    }, 
    "id": "413299885392158", 
    "name": "D'goodcafe"
   }, 
   "6": {
    "location": {
     "city": "Singapore", 
     "zip": "138597 ", 
     "country": "Singapore", 
     "longitude": 103.77375402004, 
     "street": "Tembusu College Office University Town, NUS 26 College Avenue East, #B1-01", 
     "latitude": 1.3059742186871
    }, 
    "id": "131344286953020", 
    "name": "Tembusu College"
   }, 
   "7": {
    "location": {
     "city": "Singapore", 
     "zip": "138597 ", 
     "country": "Singapore", 
     "longitude": 103.77375402004, 
     "street": "Tembusu College Office University Town, NUS 26 College Avenue East, #B1-01", 
     "latitude": 1.3059742186871
    }, 
    "id": "131344286953020", 
    "name": "Tembusu College"
   }, 
   "8": {
    "location": {
     "city": "Singapore", 
     "zip": "138597 ", 
     "country": "Singapore", 
     "longitude": 103.77375402004, 
     "street": "Tembusu College Office University Town, NUS 26 College Avenue East, #B1-01", 
     "latitude": 1.3059742186871
    }, 
    "id": "131344286953020", 
    "name": "Tembusu College"
   }
  }
 }, 
 "10206425314739679": {
  "location": {
   "0": {
    "location": {
     "latitude": 25.091020937395, 
     "city": "Dubai", 
     "longitude": 55.145079599736, 
     "country": "United Arab Emirates"
    }, 
    "id": "201915756516496", 
    "name": "Dubai International Marine Club (DIMC)."
   }
  }
 }, 
 "10152778341039072": {
  "location": {
   "0": {
    "location": {
     "city": "Singapore", 
     "zip": "737919", 
     "country": "Singapore", 
     "longitude": 103.78617104895, 
     "street": "25 Rosewood Drive", 
     "latitude": 1.4304260062671
    }, 
    "id": "129518463783873", 
    "name": "Casablanca Condo"
   }, 
   "1": {
    "location": {
     "latitude": 1.3026154204401, 
     "city": "Singapore", 
     "street": "Kallang Bahru", 
     "longitude": 103.87650841638, 
     "country": "Singapore"
    }, 
    "id": "194417320585972", 
    "name": "Kallang"
   }
  }
 }, 
 "10152872772248495": {
  "location": {
   "0": {
    "location": {
     "city": "Singapore", 
     "zip": "138597 ", 
     "country": "Singapore", 
     "longitude": 103.77375402004, 
     "street": "Tembusu College Office University Town, NUS 26 College Avenue East, #B1-01", 
     "latitude": 1.3059742186871
    }, 
    "id": "131344286953020", 
    "name": "Tembusu College"
   }
  }
 }, 
 "827066977341681": {
  "location": {
   "0": {
    "location": {
     "city": "Singapore", 
     "zip": "119244", 
     "country": "Singapore", 
     "longitude": 103.77328088643, 
     "street": "11 Kent Ridge Drive", 
     "latitude": 1.2930908701343
    }, 
    "id": "154949914560762", 
    "name": "Shaw Foundation Alumni House"
   }
  }
 }, 
 "10152810164004163": {
  "location": {
   "0": {
    "location": {
     "city": "Singapore", 
     "zip": "138597 ", 
     "country": "Singapore", 
     "longitude": 103.77375402004, 
     "street": "Tembusu College Office University Town, NUS 26 College Avenue East, #B1-01", 
     "latitude": 1.3059742186871
    }, 
    "id": "131344286953020", 
    "name": "Tembusu College"
   }
  }
 }, 
 "10152813725574065": {
  "location": {
   "0": {
    "location": {
     "city": "Singapore", 
     "zip": "119077", 
     "country": "Singapore", 
     "longitude": 103.77199228062, 
     "street": "21 Lower Kent Ridge Road, Singapore 119077", 
     "latitude": 1.2994982051199
    }, 
    "id": "176017608539", 
    "name": "National University of Singapore"
   }, 
   "1": {
    "location": {
     "city": "Singapore", 
     "zip": "119077", 
     "country": "Singapore", 
     "longitude": 103.77199228062, 
     "street": "21 Lower Kent Ridge Road, Singapore 119077", 
     "latitude": 1.2994982051199
    }, 
    "id": "176017608539", 
    "name": "National University of Singapore"
   }, 
   "2": {
    "location": {
     "city": "Singapore", 
     "zip": "119077", 
     "country": "Singapore", 
     "longitude": 103.77199228062, 
     "street": "21 Lower Kent Ridge Road, Singapore 119077", 
     "latitude": 1.2994982051199
    }, 
    "id": "176017608539", 
    "name": "National University of Singapore"
   }, 
   "3": {
    "location": {
     "city": "Singapore", 
     "zip": "119077", 
     "country": "Singapore", 
     "longitude": 103.77199228062, 
     "street": "21 Lower Kent Ridge Road, Singapore 119077", 
     "latitude": 1.2994982051199
    }, 
    "id": "176017608539", 
    "name": "National University of Singapore"
   }
  }
 }, 
 "10153094536138211": {
  "location": {
   "0": {
    "location": {
     "latitude": 25.153848555193, 
     "city": "Dubai", 
     "longitude": 55.375735678774, 
     "country": "United Arab Emirates"
    }, 
    "id": "108226382533047", 
    "name": "Dubai Modern High School"
   }
  }
 }, 
 "868050909918847": {
  "location": {
   "0": {
    "location": {
     "city": "Singapore", 
     "zip": "138607", 
     "country": "Singapore", 
     "longitude": 103.77340246806, 
     "street": "2 College Avenue West, #01-02 Stephen Riady Centre", 
     "latitude": 1.3048918342112
    }, 
    "id": "161192807267810", 
    "name": "NUS UTown"
   }
  }
 }, 
 "10206692976263148": {
  "location": {
   "0": {
    "location": {
     "latitude": 25.153455689762, 
     "city": "Dubai", 
     "longitude": 55.375977394236, 
     "country": "United Arab Emirates"
    }, 
    "id": "211589962195554", 
    "name": "Dubai Modern High"
   }
  }
 }, 
 "10206307195264341": {
  "location": {
   "0": {
    "location": {
     "city": "Singapore", 
     "zip": "119244", 
     "country": "Singapore", 
     "longitude": 103.77328088643, 
     "street": "11 Kent Ridge Drive", 
     "latitude": 1.2930908701343
    }, 
    "id": "154949914560762", 
    "name": "Shaw Foundation Alumni House"
   }
  }
 }, 
 "10152746718788947": {
  "location": {
   "0": {
    "location": {
     "latitude": 25.153455689762, 
     "city": "Dubai", 
     "longitude": 55.375977394236, 
     "country": "United Arab Emirates"
    }, 
    "id": "211589962195554", 
    "name": "Dubai Modern High"
   }
  }
 }, 
 "10204738512800625": {
  "location": {
   "0": {
    "location": {
     "city": "Singapore", 
     "zip": "138607", 
     "country": "Singapore", 
     "longitude": 103.77340246806, 
     "street": "2 College Avenue West, #01-02 Stephen Riady Centre", 
     "latitude": 1.3048918342112
    }, 
    "id": "161192807267810", 
    "name": "NUS UTown"
   }
  }
 }, 
 "10152908014238649": {
  "location": {
   "0": {
    "location": {
     "city": "Singapore", 
     "zip": "138607", 
     "country": "Singapore", 
     "longitude": 103.77340246806, 
     "street": "2 College Avenue West, #01-02 Stephen Riady Centre", 
     "latitude": 1.3048918342112
    }, 
    "id": "161192807267810", 
    "name": "NUS UTown"
   }
  }
 }, 
 "10206072665514139": {
  "profile": {
   "first_name": "Abdulla", 
   "last_name": "Contractor", 
   "middle_name": "Aslam", 
   "name": "Abdulla Aslam Contractor", 
   "locale": "en_GB", 
   "gender": "male", 
   "verified": true, 
   "email": "mac_abdulla@hotmail.com", 
   "link": "https://www.facebook.com/app_scoped_user_id/10206072665514139/", 
   "hometown": {
    "id": "114759761873412", 
    "name": "Mumbai, Maharashtra, India"
   }, 
   "timezone": 8, 
   "updated_time": "2014-09-04T13:41:44+0000", 
   "id": "10206072665514139"
  }, 
  "keywords": {
   "surf": 0, 
   "kayaking": 0, 
   "roller coaster": 0, 
   "cruise": 0, 
   "snowboard": 0, 
   "outdoor": 0, 
   "skiing": 0, 
   "run": 5, 
   "sport": 0, 
   "mountain": 0, 
   "resort": 0, 
   "movie": 2, 
   "museum": 0, 
   "aquatic sports": 0, 
   "camp": 1, 
   "zoo": 0, 
   "romance": 0, 
   "religion": 0, 
   "hill": 0, 
   "beach": 0, 
   "temple": 0, 
   "spa": 1, 
   "shopping": 0, 
   "city": 1, 
   "dive": 0, 
   "wildlife": 0, 
   "urban exploration": 0, 
   "snorkel": 0, 
   "outdoor sports": 0, 
   "trek": 0, 
   "carnival": 0, 
   "hike": 0, 
   "casino": 0, 
   "yacht": 0, 
   "wind surfing": 0, 
   "jet ski": 0, 
   "mall": 1, 
   "indoor sports": 0, 
   "climb": 0, 
   "swimming": 0, 
   "history": 0
  }, 
  "location": {
   "0": {
    "location": {
     "city": "Singapore", 
     "zip": "449035", 
     "country": "Singapore", 
     "longitude": 103.9198217678, 
     "street": "20 Marine Vista", 
     "latitude": 1.3062203063941
    }, 
    "id": "171751489503613", 
    "name": "Victoria Junior College"
   }, 
   "1": {
    "location": {
     "city": "Singapore", 
     "zip": "449035", 
     "country": "Singapore", 
     "longitude": 103.9198217678, 
     "street": "20 Marine Vista", 
     "latitude": 1.3062203063941
    }, 
    "id": "171751489503613", 
    "name": "Victoria Junior College"
   }, 
   "2": {
    "location": {
     "city": "Singapore", 
     "zip": "427436", 
     "country": "Singapore", 
     "longitude": 103.90022981672, 
     "street": "159 Joo Chiat Road, Singapore ", 
     "latitude": 1.3126578587136
    }, 
    "id": "340828119325266", 
    "name": "Long Ph\u1ee5ng Vietnamese Restaurant"
   }, 
   "3": {
    "location": {
     "city": "Singapore", 
     "zip": "081007", 
     "country": "Singapore", 
     "longitude": 103.84339729549, 
     "street": "APT/BLK 7 TANJONG PAGAR PLAZA #01-104B", 
     "latitude": 1.2767333055917
    }, 
    "id": "148746791950619", 
    "name": "Ikkousha Hakata Ramen Singapore - \u535a\u591a\u4e00\u5e78\u820e"
   }, 
   "4": {
    "location": {
     "city": "Singapore", 
     "zip": "081007", 
     "country": "Singapore", 
     "longitude": 103.84339729549, 
     "street": "APT/BLK 7 TANJONG PAGAR PLAZA #01-104B", 
     "latitude": 1.2767333055917
    }, 
    "id": "148746791950619", 
    "name": "Ikkousha Hakata Ramen Singapore - \u535a\u591a\u4e00\u5e78\u820e"
   }, 
   "5": {
    "location": {
     "latitude": 1.3117748332183, 
     "city": "Singapore", 
     "zip": "27", 
     "longitude": 103.79538306369, 
     "country": "Singapore"
    }, 
    "id": "413299885392158", 
    "name": "D'goodcafe"
   }, 
   "6": {
    "location": {
     "latitude": 1.3117748332183, 
     "city": "Singapore", 
     "zip": "27", 
     "longitude": 103.79538306369, 
     "country": "Singapore"
    }, 
    "id": "413299885392158", 
    "name": "D'goodcafe"
   }, 
   "7": {
    "location": {
     "latitude": 1.3117748332183, 
     "city": "Singapore", 
     "zip": "27", 
     "longitude": 103.79538306369, 
     "country": "Singapore"
    }, 
    "id": "413299885392158", 
    "name": "D'goodcafe"
   }, 
   "8": {
    "location": {
     "latitude": 1.3117748332183, 
     "city": "Singapore", 
     "zip": "27", 
     "longitude": 103.79538306369, 
     "country": "Singapore"
    }, 
    "id": "413299885392158", 
    "name": "D'goodcafe"
   }, 
   "9": {
    "location": {
     "latitude": 1.3117748332183, 
     "city": "Singapore", 
     "zip": "27", 
     "longitude": 103.79538306369, 
     "country": "Singapore"
    }, 
    "id": "413299885392158", 
    "name": "D'goodcafe"
   }, 
   "10": {
    "location": {
     "latitude": 1.3117748332183, 
     "city": "Singapore", 
     "zip": "27", 
     "longitude": 103.79538306369, 
     "country": "Singapore"
    }, 
    "id": "413299885392158", 
    "name": "D'goodcafe"
   }, 
   "11": {
    "location": {
     "latitude": 1.3117748332183, 
     "city": "Singapore", 
     "zip": "27", 
     "longitude": 103.79538306369, 
     "country": "Singapore"
    }, 
    "id": "413299885392158", 
    "name": "D'goodcafe"
   }, 
   "12": {
    "location": {
     "latitude": 1.3117748332183, 
     "city": "Singapore", 
     "zip": "27", 
     "longitude": 103.79538306369, 
     "country": "Singapore"
    }, 
    "id": "413299885392158", 
    "name": "D'goodcafe"
   }, 
   "13": {
    "location": {
     "latitude": 1.3117748332183, 
     "city": "Singapore", 
     "zip": "27", 
     "longitude": 103.79538306369, 
     "country": "Singapore"
    }, 
    "id": "413299885392158", 
    "name": "D'goodcafe"
   }, 
   "14": {
    "location": {
     "latitude": 1.3117748332183, 
     "city": "Singapore", 
     "zip": "27", 
     "longitude": 103.79538306369, 
     "country": "Singapore"
    }, 
    "id": "413299885392158", 
    "name": "D'goodcafe"
   }, 
   "15": {
    "location": {
     "city": "Singapore", 
     "zip": "138597 ", 
     "country": "Singapore", 
     "longitude": 103.77375402004, 
     "street": "Tembusu College Office University Town, NUS 26 College Avenue East, #B1-01", 
     "latitude": 1.3059742186871
    }, 
    "id": "131344286953020", 
    "name": "Tembusu College"
   }, 
   "16": {
    "location": {
     "city": "Singapore", 
     "zip": "138597 ", 
     "country": "Singapore", 
     "longitude": 103.77375402004, 
     "street": "Tembusu College Office University Town, NUS 26 College Avenue East, #B1-01", 
     "latitude": 1.3059742186871
    }, 
    "id": "131344286953020", 
    "name": "Tembusu College"
   }, 
   "17": {
    "location": {
     "city": "Singapore", 
     "zip": "138597 ", 
     "country": "Singapore", 
     "longitude": 103.77375402004, 
     "street": "Tembusu College Office University Town, NUS 26 College Avenue East, #B1-01", 
     "latitude": 1.3059742186871
    }, 
    "id": "131344286953020", 
    "name": "Tembusu College"
   }, 
   "18": {
    "location": {
     "city": "Singapore", 
     "zip": "138597 ", 
     "country": "Singapore", 
     "longitude": 103.77375402004, 
     "street": "Tembusu College Office University Town, NUS 26 College Avenue East, #B1-01", 
     "latitude": 1.3059742186871
    }, 
    "id": "131344286953020", 
    "name": "Tembusu College"
   }, 
   "19": {
    "location": {
     "city": "Singapore", 
     "zip": "179021", 
     "country": "Singapore", 
     "longitude": 103.84514452416, 
     "street": "3B River Valley Road. Clarke Quay, The Foundry. #01-08", 
     "latitude": 1.2906662756262
    }, 
    "id": "503767193032453", 
    "name": "f.Club Singapore"
   }, 
   "20": {
    "location": {
     "city": "Singapore", 
     "zip": "737919", 
     "country": "Singapore", 
     "longitude": 103.78617104895, 
     "street": "25 Rosewood Drive", 
     "latitude": 1.4304260062671
    }, 
    "id": "129518463783873", 
    "name": "Casablanca Condo"
   }, 
   "21": {
    "location": {
     "latitude": 1.3026154204401, 
     "city": "Singapore", 
     "street": "Kallang Bahru", 
     "longitude": 103.87650841638, 
     "country": "Singapore"
    }, 
    "id": "194417320585972", 
    "name": "Kallang"
   }, 
   "22": {
    "location": {
     "city": "Singapore", 
     "zip": "119077", 
     "country": "Singapore", 
     "longitude": 103.77199228062, 
     "street": "21 Lower Kent Ridge Road, Singapore 119077", 
     "latitude": 1.2994982051199
    }, 
    "id": "176017608539", 
    "name": "National University of Singapore"
   }, 
   "23": {
    "location": {
     "city": "Singapore", 
     "zip": "119077", 
     "country": "Singapore", 
     "longitude": 103.77199228062, 
     "street": "21 Lower Kent Ridge Road, Singapore 119077", 
     "latitude": 1.2994982051199
    }, 
    "id": "176017608539", 
    "name": "National University of Singapore"
   }, 
   "24": {
    "location": {
     "city": "Singapore", 
     "zip": "119077", 
     "country": "Singapore", 
     "longitude": 103.77199228062, 
     "street": "21 Lower Kent Ridge Road, Singapore 119077", 
     "latitude": 1.2994982051199
    }, 
    "id": "176017608539", 
    "name": "National University of Singapore"
   }, 
   "25": {
    "location": {
     "city": "Singapore", 
     "zip": "119077", 
     "country": "Singapore", 
     "longitude": 103.77199228062, 
     "street": "21 Lower Kent Ridge Road, Singapore 119077", 
     "latitude": 1.2994982051199
    }, 
    "id": "176017608539", 
    "name": "National University of Singapore"
   }, 
   "26": {
    "location": {
     "city": "Singapore", 
     "zip": "119077", 
     "country": "Singapore", 
     "longitude": 103.77199228062, 
     "street": "21 Lower Kent Ridge Road, Singapore 119077", 
     "latitude": 1.2994982051199
    }, 
    "id": "176017608539", 
    "name": "National University of Singapore"
   }, 
   "27": {
    "location": {
     "city": "Singapore", 
     "zip": "119077", 
     "country": "Singapore", 
     "longitude": 103.77199228062, 
     "street": "21 Lower Kent Ridge Road, Singapore 119077", 
     "latitude": 1.2994982051199
    }, 
    "id": "176017608539", 
    "name": "National University of Singapore"
   }, 
   "28": {
    "location": {
     "city": "Singapore", 
     "zip": "119077", 
     "country": "Singapore", 
     "longitude": 103.77199228062, 
     "street": "21 Lower Kent Ridge Road, Singapore 119077", 
     "latitude": 1.2994982051199
    }, 
    "id": "176017608539", 
    "name": "National University of Singapore"
   }, 
   "29": {
    "location": {
     "city": "Singapore", 
     "zip": "119077", 
     "country": "Singapore", 
     "longitude": 103.77199228062, 
     "street": "21 Lower Kent Ridge Road, Singapore 119077", 
     "latitude": 1.2994982051199
    }, 
    "id": "176017608539", 
    "name": "National University of Singapore"
   }, 
   "30": {
    "location": {
     "city": "Singapore", 
     "zip": "138607", 
     "country": "Singapore", 
     "longitude": 103.77340246806, 
     "street": "2 College Avenue West, #01-02 Stephen Riady Centre", 
     "latitude": 1.3048918342112
    }, 
    "id": "161192807267810", 
    "name": "NUS UTown"
   }, 
   "31": {
    "location": {
     "city": "Singapore", 
     "zip": "138607", 
     "country": "Singapore", 
     "longitude": 103.77340246806, 
     "street": "2 College Avenue West, #01-02 Stephen Riady Centre", 
     "latitude": 1.3048918342112
    }, 
    "id": "161192807267810", 
    "name": "NUS UTown"
   }, 
   "32": {
    "location": {
     "city": "Singapore", 
     "zip": "138607", 
     "country": "Singapore", 
     "longitude": 103.77340246806, 
     "street": "2 College Avenue West, #01-02 Stephen Riady Centre", 
     "latitude": 1.3048918342112
    }, 
    "id": "161192807267810", 
    "name": "NUS UTown"
   }, 
   "33": {
    "location": {
     "city": "Singapore", 
     "zip": "119244", 
     "country": "Singapore", 
     "longitude": 103.77328088643, 
     "street": "11 Kent Ridge Drive", 
     "latitude": 1.2930908701343
    }, 
    "id": "154949914560762", 
    "name": "Shaw Foundation Alumni House"
   }, 
   "34": {
    "location": {
     "city": "Singapore", 
     "zip": "119244", 
     "country": "Singapore", 
     "longitude": 103.77328088643, 
     "street": "11 Kent Ridge Drive", 
     "latitude": 1.2930908701343
    }, 
    "id": "154949914560762", 
    "name": "Shaw Foundation Alumni House"
   }, 
   "35": {
    "start_time": "2013-07-05T12:00:00+0400", 
    "location": "Meydan IMAX Theatre", 
    "id": "611735025517280", 
    "name": "IGN Convention"
   }, 
   "36": {
    "location": {
     "latitude": 25.090741913619, 
     "city": "Dubai", 
     "longitude": 55.145028489179, 
     "country": "United Arab Emirates"
    }, 
    "id": "396360967052558", 
    "name": "MEFCC Comic Con in Dubai"
   }, 
   "37": {
    "location": {
     "latitude": 25.153848555193, 
     "city": "Dubai", 
     "longitude": 55.375735678774, 
     "country": "United Arab Emirates"
    }, 
    "id": "108226382533047", 
    "name": "Dubai Modern High School"
   }, 
   "38": {
    "location": {
     "latitude": 25.153455689762, 
     "city": "Dubai", 
     "longitude": 55.375977394236, 
     "country": "United Arab Emirates"
    }, 
    "id": "211589962195554", 
    "name": "Dubai Modern High"
   }, 
   "39": {
    "location": {
     "latitude": 25.153848555193, 
     "city": "Dubai", 
     "longitude": 55.375735678774, 
     "country": "United Arab Emirates"
    }, 
    "id": "108226382533047", 
    "name": "Dubai Modern High School"
   }, 
   "40": {
    "location": {
     "latitude": 25.153848555193, 
     "city": "Dubai", 
     "longitude": 55.375735678774, 
     "country": "United Arab Emirates"
    }, 
    "id": "108226382533047", 
    "name": "Dubai Modern High School"
   }, 
   "41": {
    "location": {
     "latitude": 25.153848555193, 
     "city": "Dubai", 
     "longitude": 55.375735678774, 
     "country": "United Arab Emirates"
    }, 
    "id": "108226382533047", 
    "name": "Dubai Modern High School"
   }, 
   "42": {
    "location": {
     "latitude": 25.153848555193, 
     "city": "Dubai", 
     "longitude": 55.375735678774, 
     "country": "United Arab Emirates"
    }, 
    "id": "108226382533047", 
    "name": "Dubai Modern High School"
   }, 
   "43": {
    "location": {
     "latitude": 25.153848555193, 
     "city": "Dubai", 
     "longitude": 55.375735678774, 
     "country": "United Arab Emirates"
    }, 
    "id": "108226382533047", 
    "name": "Dubai Modern High School"
   }, 
   "44": {
    "location": {
     "latitude": 25.153848555193, 
     "city": "Dubai", 
     "longitude": 55.375735678774, 
     "country": "United Arab Emirates"
    }, 
    "id": "108226382533047", 
    "name": "Dubai Modern High School"
   }, 
   "45": {
    "location": {
     "latitude": 25.153848555193, 
     "city": "Dubai", 
     "longitude": 55.375735678774, 
     "country": "United Arab Emirates"
    }, 
    "id": "108226382533047", 
    "name": "Dubai Modern High School"
   }, 
   "46": {
    "location": {
     "latitude": 25.153848555193, 
     "city": "Dubai", 
     "longitude": 55.375735678774, 
     "country": "United Arab Emirates"
    }, 
    "id": "108226382533047", 
    "name": "Dubai Modern High School"
   }, 
   "47": {
    "location": {
     "latitude": 25.091020937395, 
     "city": "Dubai", 
     "longitude": 55.145079599736, 
     "country": "United Arab Emirates"
    }, 
    "id": "201915756516496", 
    "name": "Dubai International Marine Club (DIMC)."
   }, 
   "48": {
    "location": {
     "latitude": 25.091020937395, 
     "city": "Dubai", 
     "longitude": 55.145079599736, 
     "country": "United Arab Emirates"
    }, 
    "id": "201915756516496", 
    "name": "Dubai International Marine Club (DIMC)."
   }, 
   "49": {
    "location": {
     "latitude": 25.153455689762, 
     "city": "Dubai", 
     "longitude": 55.375977394236, 
     "country": "United Arab Emirates"
    }, 
    "id": "211589962195554", 
    "name": "Dubai Modern High"
   }, 
   "50": {
    "location": {
     "latitude": 1.29306, 
     "longitude": 103.856, 
     "located_in": "240852582604992"
    }, 
    "id": "101883206519751", 
    "name": "Singapore, Singapore"
   }, 
   "51": {
    "location": {
     "latitude": 1.29306, 
     "longitude": 103.856, 
     "located_in": "240852582604992"
    }, 
    "id": "101883206519751", 
    "name": "Singapore, Singapore"
   }, 
   "52": {
    "location": {
     "latitude": 1.29306, 
     "longitude": 103.856, 
     "located_in": "240852582604992"
    }, 
    "id": "101883206519751", 
    "name": "Singapore, Singapore"
   }, 
   "53": {
    "location": {
     "latitude": 1.29306, 
     "longitude": 103.856, 
     "located_in": "240852582604992"
    }, 
    "id": "101883206519751", 
    "name": "Singapore, Singapore"
   }, 
   "54": {
    "location": {
     "latitude": 1.29306, 
     "longitude": 103.856, 
     "located_in": "240852582604992"
    }, 
    "id": "101883206519751", 
    "name": "Singapore, Singapore"
   }, 
   "55": {
    "location": {
     "latitude": 1.29306, 
     "longitude": 103.856, 
     "located_in": "240852582604992"
    }, 
    "id": "101883206519751", 
    "name": "Singapore, Singapore"
   }, 
   "56": {
    "location": {
     "latitude": 1.29306, 
     "longitude": 103.856, 
     "located_in": "240852582604992"
    }, 
    "id": "101883206519751", 
    "name": "Singapore, Singapore"
   }, 
   "57": {
    "location": {
     "city": "Abu Dhabi", 
     "zip": "02", 
     "country": "United Arab Emirates", 
     "longitude": 54.62641, 
     "street": "Yas Island", 
     "latitude": 24.31561
    }, 
    "id": "232001520191613", 
    "name": "Yas Island, Abu Dhab\u0131"
   }, 
   "58": {
    "location": {
     "city": "Abu Dhabi", 
     "zip": "02", 
     "country": "United Arab Emirates", 
     "longitude": 54.62641, 
     "street": "Yas Island", 
     "latitude": 24.31561
    }, 
    "id": "232001520191613", 
    "name": "Yas Island, Abu Dhab\u0131"
   }, 
   "59": {
    "location": {
     "city": "Abu Dhabi", 
     "zip": "02", 
     "country": "United Arab Emirates", 
     "longitude": 54.62641, 
     "street": "Yas Island", 
     "latitude": 24.31561
    }, 
    "id": "232001520191613", 
    "name": "Yas Island, Abu Dhab\u0131"
   }, 
   "60": {
    "location": {
     "latitude": 24.466471354273, 
     "city": "Abu Dhabi", 
     "street": "Yas Island", 
     "longitude": 54.59830897911, 
     "country": "United Arab Emirates"
    }, 
    "id": "118105734913664", 
    "name": "Yas Island"
   }, 
   "61": {
    "location": {
     "latitude": 24.466471354273, 
     "city": "Abu Dhabi", 
     "street": "Yas Island", 
     "longitude": 54.59830897911, 
     "country": "United Arab Emirates"
    }, 
    "id": "118105734913664", 
    "name": "Yas Island"
   }
  }
 }, 
 "10152837186926559": {
  "location": {
   "0": {
    "location": {
     "city": "Singapore", 
     "zip": "138607", 
     "country": "Singapore", 
     "longitude": 103.77340246806, 
     "street": "2 College Avenue West, #01-02 Stephen Riady Centre", 
     "latitude": 1.3048918342112
    }, 
    "id": "161192807267810", 
    "name": "NUS UTown"
   }
  }
 }, 
 "10153148079618252": {
  "location": {
   "0": {
    "location": {
     "latitude": 25.153455689762, 
     "city": "Dubai", 
     "longitude": 55.375977394236, 
     "country": "United Arab Emirates"
    }, 
    "id": "211589962195554", 
    "name": "Dubai Modern High"
   }
  }
 }, 
 "10204810026825088": {
  "location": {
   "0": {
    "location": {
     "city": "Singapore", 
     "zip": "138597 ", 
     "country": "Singapore", 
     "longitude": 103.77375402004, 
     "street": "Tembusu College Office University Town, NUS 26 College Avenue East, #B1-01", 
     "latitude": 1.3059742186871
    }, 
    "id": "131344286953020", 
    "name": "Tembusu College"
   }, 
   "1": {
    "location": {
     "city": "Singapore", 
     "zip": "138597 ", 
     "country": "Singapore", 
     "longitude": 103.77375402004, 
     "street": "Tembusu College Office University Town, NUS 26 College Avenue East, #B1-01", 
     "latitude": 1.3059742186871
    }, 
    "id": "131344286953020", 
    "name": "Tembusu College"
   }
  }
 }, 
 "10206190433543687": {
  "location": {
   "0": {
    "location": {
     "latitude": 25.153455689762, 
     "city": "Dubai", 
     "longitude": 55.375977394236, 
     "country": "United Arab Emirates"
    }, 
    "id": "211589962195554", 
    "name": "Dubai Modern High"
   }
  }
 }, 
 "10152842500173224": {
  "location": {
   "0": {
    "location": {
     "city": "Singapore", 
     "zip": "119077", 
     "country": "Singapore", 
     "longitude": 103.77199228062, 
     "street": "21 Lower Kent Ridge Road, Singapore 119077", 
     "latitude": 1.2994982051199
    }, 
    "id": "176017608539", 
    "name": "National University of Singapore"
   }, 
   "1": {
    "location": {
     "city": "Singapore", 
     "zip": "119077", 
     "country": "Singapore", 
     "longitude": 103.77199228062, 
     "street": "21 Lower Kent Ridge Road, Singapore 119077", 
     "latitude": 1.2994982051199
    }, 
    "id": "176017608539", 
    "name": "National University of Singapore"
   }, 
   "2": {
    "location": {
     "city": "Singapore", 
     "zip": "119077", 
     "country": "Singapore", 
     "longitude": 103.77199228062, 
     "street": "21 Lower Kent Ridge Road, Singapore 119077", 
     "latitude": 1.2994982051199
    }, 
    "id": "176017608539", 
    "name": "National University of Singapore"
   }, 
   "3": {
    "location": {
     "city": "Singapore", 
     "zip": "119077", 
     "country": "Singapore", 
     "longitude": 103.77199228062, 
     "street": "21 Lower Kent Ridge Road, Singapore 119077", 
     "latitude": 1.2994982051199
    }, 
    "id": "176017608539", 
    "name": "National University of Singapore"
   }
  }
 }, 
 "10205430047966596": {
  "location": {
   "0": {
    "location": {
     "city": "Singapore", 
     "zip": "138607", 
     "country": "Singapore", 
     "longitude": 103.77340246806, 
     "street": "2 College Avenue West, #01-02 Stephen Riady Centre", 
     "latitude": 1.3048918342112
    }, 
    "id": "161192807267810", 
    "name": "NUS UTown"
   }
  }
 }, 
 "10152872772298495": {
  "location": {
   "0": {
    "location": {
     "city": "Singapore", 
     "zip": "119244", 
     "country": "Singapore", 
     "longitude": 103.77328088643, 
     "street": "11 Kent Ridge Drive", 
     "latitude": 1.2930908701343
    }, 
    "id": "154949914560762", 
    "name": "Shaw Foundation Alumni House"
   }
  }
 }, 
 "10205350108846135": {
  "location": {
   "0": {
    "location": {
     "city": "Singapore", 
     "zip": "138607", 
     "country": "Singapore", 
     "longitude": 103.77340246806, 
     "street": "2 College Avenue West, #01-02 Stephen Riady Centre", 
     "latitude": 1.3048918342112
    }, 
    "id": "161192807267810", 
    "name": "NUS UTown"
   }
  }
 }, 
 "10152860003924164": {
  "location": {
   "0": {
    "location": {
     "latitude": 25.153455689762, 
     "city": "Dubai", 
     "longitude": 55.375977394236, 
     "country": "United Arab Emirates"
    }, 
    "id": "211589962195554", 
    "name": "Dubai Modern High"
   }, 
   "1": {
    "location": {
     "latitude": 25.153455689762, 
     "city": "Dubai", 
     "longitude": 55.375977394236, 
     "country": "United Arab Emirates"
    }, 
    "id": "211589962195554", 
    "name": "Dubai Modern High"
   }
  }
 }, 
 "805634012853668": {
  "location": {
   "0": {
    "location": {
     "latitude": 25.153455689762, 
     "city": "Dubai", 
     "longitude": 55.375977394236, 
     "country": "United Arab Emirates"
    }, 
    "id": "211589962195554", 
    "name": "Dubai Modern High"
   }
  }
 }, 
 "10152437936724159": {
  "location": {
   "0": {
    "location": {
     "city": "Singapore", 
     "zip": "138607", 
     "country": "Singapore", 
     "longitude": 103.77340246806, 
     "street": "2 College Avenue West, #01-02 Stephen Riady Centre", 
     "latitude": 1.3048918342112
    }, 
    "id": "161192807267810", 
    "name": "NUS UTown"
   }
  }
 }, 
 "10205097661375126": {
  "location": {
   "0": {
    "location": {
     "city": "Singapore", 
     "zip": "138607", 
     "country": "Singapore", 
     "longitude": 103.77340246806, 
     "street": "2 College Avenue West, #01-02 Stephen Riady Centre", 
     "latitude": 1.3048918342112
    }, 
    "id": "161192807267810", 
    "name": "NUS UTown"
   }, 
   "1": {
    "location": {
     "city": "Singapore", 
     "zip": "138607", 
     "country": "Singapore", 
     "longitude": 103.77340246806, 
     "street": "2 College Avenue West, #01-02 Stephen Riady Centre", 
     "latitude": 1.3048918342112
    }, 
    "id": "161192807267810", 
    "name": "NUS UTown"
   }
  }
 }, 
 "10153156196756585": {
  "location": {
   "0": {
    "location": {
     "city": "Singapore", 
     "zip": "449035", 
     "country": "Singapore", 
     "longitude": 103.9198217678, 
     "street": "20 Marine Vista", 
     "latitude": 1.3062203063941
    }, 
    "id": "171751489503613", 
    "name": "Victoria Junior College"
   }, 
   "1": {
    "location": {
     "city": "Singapore", 
     "zip": "449035", 
     "country": "Singapore", 
     "longitude": 103.9198217678, 
     "street": "20 Marine Vista", 
     "latitude": 1.3062203063941
    }, 
    "id": "171751489503613", 
    "name": "Victoria Junior College"
   }, 
   "2": {
    "location": {
     "city": "Singapore", 
     "zip": "081007", 
     "country": "Singapore", 
     "longitude": 103.84339729549, 
     "street": "APT/BLK 7 TANJONG PAGAR PLAZA #01-104B", 
     "latitude": 1.2767333055917
    }, 
    "id": "148746791950619", 
    "name": "Ikkousha Hakata Ramen Singapore - \u535a\u591a\u4e00\u5e78\u820e"
   }, 
   "3": {
    "location": {
     "city": "Singapore", 
     "zip": "081007", 
     "country": "Singapore", 
     "longitude": 103.84339729549, 
     "street": "APT/BLK 7 TANJONG PAGAR PLAZA #01-104B", 
     "latitude": 1.2767333055917
    }, 
    "id": "148746791950619", 
    "name": "Ikkousha Hakata Ramen Singapore - \u535a\u591a\u4e00\u5e78\u820e"
   }, 
   "4": {
    "location": {
     "city": "Singapore", 
     "zip": "138597 ", 
     "country": "Singapore", 
     "longitude": 103.77375402004, 
     "street": "Tembusu College Office University Town, NUS 26 College Avenue East, #B1-01", 
     "latitude": 1.3059742186871
    }, 
    "id": "131344286953020", 
    "name": "Tembusu College"
   }, 
   "5": {
    "location": {
     "city": "Singapore", 
     "zip": "138597 ", 
     "country": "Singapore", 
     "longitude": 103.77375402004, 
     "street": "Tembusu College Office University Town, NUS 26 College Avenue East, #B1-01", 
     "latitude": 1.3059742186871
    }, 
    "id": "131344286953020", 
    "name": "Tembusu College"
   }
  }
 }, 
 "10206415465091784": {
  "location": {
   "0": {
    "location": {
     "latitude": 25.153848555193, 
     "city": "Dubai", 
     "longitude": 55.375735678774, 
     "country": "United Arab Emirates"
    }, 
    "id": "108226382533047", 
    "name": "Dubai Modern High School"
   }, 
   "1": {
    "location": {
     "latitude": 25.153848555193, 
     "city": "Dubai", 
     "longitude": 55.375735678774, 
     "country": "United Arab Emirates"
    }, 
    "id": "108226382533047", 
    "name": "Dubai Modern High School"
   }
  }
 }, 
 "10152822713989389": {
  "location": {
   "0": {
    "location": {
     "city": "Singapore", 
     "zip": "138597 ", 
     "country": "Singapore", 
     "longitude": 103.77375402004, 
     "street": "Tembusu College Office University Town, NUS 26 College Avenue East, #B1-01", 
     "latitude": 1.3059742186871
    }, 
    "id": "131344286953020", 
    "name": "Tembusu College"
   }, 
   "1": {
    "location": {
     "city": "Singapore", 
     "zip": "138597 ", 
     "country": "Singapore", 
     "longitude": 103.77375402004, 
     "street": "Tembusu College Office University Town, NUS 26 College Avenue East, #B1-01", 
     "latitude": 1.3059742186871
    }, 
    "id": "131344286953020", 
    "name": "Tembusu College"
   }
  }
 }, 
 "120850647950372": {
  "location": {
   "0": {
    "location": {
     "latitude": 25.091020937395, 
     "city": "Dubai", 
     "longitude": 55.145079599736, 
     "country": "United Arab Emirates"
    }, 
    "id": "201915756516496", 
    "name": "Dubai International Marine Club (DIMC)."
   }
  }
 }, 
 "10204785830979112": {
  "location": {
   "0": {
    "location": {
     "city": "Abu Dhabi", 
     "zip": "02", 
     "country": "United Arab Emirates", 
     "longitude": 54.62641, 
     "street": "Yas Island", 
     "latitude": 24.31561
    }, 
    "id": "232001520191613", 
    "name": "Yas Island, Abu Dhab\u0131"
   }
  }
 }, 
 "930690596972610": {
  "location": {
   "0": {
    "location": {
     "city": "Singapore", 
     "zip": "138607", 
     "country": "Singapore", 
     "longitude": 103.77340246806, 
     "street": "2 College Avenue West, #01-02 Stephen Riady Centre", 
     "latitude": 1.3048918342112
    }, 
    "id": "161192807267810", 
    "name": "NUS UTown"
   }
  }
 }, 
 "10153144677188069": {
  "location": {
   "0": {
    "location": {
     "latitude": 25.153455689762, 
     "city": "Dubai", 
     "longitude": 55.375977394236, 
     "country": "United Arab Emirates"
    }, 
    "id": "211589962195554", 
    "name": "Dubai Modern High"
   }
  }
 }, 
 "10153188060354875": {
  "location": {
   "0": {
    "location": {
     "city": "Singapore", 
     "zip": "119077", 
     "country": "Singapore", 
     "longitude": 103.77199228062, 
     "street": "21 Lower Kent Ridge Road, Singapore 119077", 
     "latitude": 1.2994982051199
    }, 
    "id": "176017608539", 
    "name": "National University of Singapore"
   }, 
   "1": {
    "location": {
     "city": "Singapore", 
     "zip": "119077", 
     "country": "Singapore", 
     "longitude": 103.77199228062, 
     "street": "21 Lower Kent Ridge Road, Singapore 119077", 
     "latitude": 1.2994982051199
    }, 
    "id": "176017608539", 
    "name": "National University of Singapore"
   }, 
   "2": {
    "location": {
     "city": "Singapore", 
     "zip": "119077", 
     "country": "Singapore", 
     "longitude": 103.77199228062, 
     "street": "21 Lower Kent Ridge Road, Singapore 119077", 
     "latitude": 1.2994982051199
    }, 
    "id": "176017608539", 
    "name": "National University of Singapore"
   }, 
   "3": {
    "location": {
     "city": "Singapore", 
     "zip": "119077", 
     "country": "Singapore", 
     "longitude": 103.77199228062, 
     "street": "21 Lower Kent Ridge Road, Singapore 119077", 
     "latitude": 1.2994982051199
    }, 
    "id": "176017608539", 
    "name": "National University of Singapore"
   }, 
   "4": {
    "location": {
     "city": "Singapore", 
     "zip": "138607", 
     "country": "Singapore", 
     "longitude": 103.77340246806, 
     "street": "2 College Avenue West, #01-02 Stephen Riady Centre", 
     "latitude": 1.3048918342112
    }, 
    "id": "161192807267810", 
    "name": "NUS UTown"
   }
  }
 }, 
 "10153624634644881": {
  "location": {
   "0": {
    "location": {
     "city": "Singapore", 
     "zip": "138597 ", 
     "country": "Singapore", 
     "longitude": 103.77375402004, 
     "street": "Tembusu College Office University Town, NUS 26 College Avenue East, #B1-01", 
     "latitude": 1.3059742186871
    }, 
    "id": "131344286953020", 
    "name": "Tembusu College"
   }, 
   "1": {
    "location": {
     "city": "Singapore", 
     "zip": "138597 ", 
     "country": "Singapore", 
     "longitude": 103.77375402004, 
     "street": "Tembusu College Office University Town, NUS 26 College Avenue East, #B1-01", 
     "latitude": 1.3059742186871
    }, 
    "id": "131344286953020", 
    "name": "Tembusu College"
   }
  }
 }, 
 "10152910391078692": {
  "location": {
   "0": {
    "location": {
     "city": "Singapore", 
     "zip": "138597 ", 
     "country": "Singapore", 
     "longitude": 103.77375402004, 
     "street": "Tembusu College Office University Town, NUS 26 College Avenue East, #B1-01", 
     "latitude": 1.3059742186871
    }, 
    "id": "131344286953020", 
    "name": "Tembusu College"
   }
  }
 }, 
 "10155291615790612": {
  "location": {
   "0": {
    "start_time": "2013-07-05T12:00:00+0400", 
    "location": "Meydan IMAX Theatre", 
    "id": "611735025517280", 
    "name": "IGN Convention"
   }, 
   "1": {
    "location": {
     "latitude": 25.153848555193, 
     "city": "Dubai", 
     "longitude": 55.375735678774, 
     "country": "United Arab Emirates"
    }, 
    "id": "108226382533047", 
    "name": "Dubai Modern High School"
   }
  }
 }, 
 "10153121657290928": {
  "location": {
   "0": {
    "location": {
     "city": "Singapore", 
     "zip": "119077", 
     "country": "Singapore", 
     "longitude": 103.77199228062, 
     "street": "21 Lower Kent Ridge Road, Singapore 119077", 
     "latitude": 1.2994982051199
    }, 
    "id": "176017608539", 
    "name": "National University of Singapore"
   }
  }
 }, 
 "10206069601608297": {
  "location": {
   "0": {
    "start_time": "2013-07-05T12:00:00+0400", 
    "location": "Meydan IMAX Theatre", 
    "id": "611735025517280", 
    "name": "IGN Convention"
   }, 
   "1": {
    "location": {
     "latitude": 25.153848555193, 
     "city": "Dubai", 
     "longitude": 55.375735678774, 
     "country": "United Arab Emirates"
    }, 
    "id": "108226382533047", 
    "name": "Dubai Modern High School"
   }, 
   "2": {
    "location": {
     "latitude": 25.153455689762, 
     "city": "Dubai", 
     "longitude": 55.375977394236, 
     "country": "United Arab Emirates"
    }, 
    "id": "211589962195554", 
    "name": "Dubai Modern High"
   }, 
   "3": {
    "location": {
     "latitude": 25.091020937395, 
     "city": "Dubai", 
     "longitude": 55.145079599736, 
     "country": "United Arab Emirates"
    }, 
    "id": "201915756516496", 
    "name": "Dubai International Marine Club (DIMC)."
   }, 
   "4": {
    "location": {
     "latitude": 25.153455689762, 
     "city": "Dubai", 
     "longitude": 55.375977394236, 
     "country": "United Arab Emirates"
    }, 
    "id": "211589962195554", 
    "name": "Dubai Modern High"
   }
  }
 }, 
 "10200206471719809": {
  "location": {
   "0": {
    "location": {
     "city": "Singapore", 
     "zip": "138607", 
     "country": "Singapore", 
     "longitude": 103.77340246806, 
     "street": "2 College Avenue West, #01-02 Stephen Riady Centre", 
     "latitude": 1.3048918342112
    }, 
    "id": "161192807267810", 
    "name": "NUS UTown"
   }
  }
 }, 
 "10205272396160820": {
  "location": {
   "0": {
    "location": {
     "city": "Singapore", 
     "zip": "138607", 
     "country": "Singapore", 
     "longitude": 103.77340246806, 
     "street": "2 College Avenue West, #01-02 Stephen Riady Centre", 
     "latitude": 1.3048918342112
    }, 
    "id": "161192807267810", 
    "name": "NUS UTown"
   }, 
   "1": {
    "location": {
     "city": "Singapore", 
     "zip": "138607", 
     "country": "Singapore", 
     "longitude": 103.77340246806, 
     "street": "2 College Avenue West, #01-02 Stephen Riady Centre", 
     "latitude": 1.3048918342112
    }, 
    "id": "161192807267810", 
    "name": "NUS UTown"
   }
  }
 }, 
 "10206542376906316": {
  "location": {
   "0": {
    "location": {
     "latitude": 25.153455689762, 
     "city": "Dubai", 
     "longitude": 55.375977394236, 
     "country": "United Arab Emirates"
    }, 
    "id": "211589962195554", 
    "name": "Dubai Modern High"
   }
  }
 }, 
 "10205247266734605": {
  "location": {
   "0": {
    "start_time": "2013-07-05T12:00:00+0400", 
    "location": "Meydan IMAX Theatre", 
    "id": "611735025517280", 
    "name": "IGN Convention"
   }
  }
 }, 
 "10153119719031101": {
  "location": {
   "0": {
    "location": {
     "latitude": 25.153455689762, 
     "city": "Dubai", 
     "longitude": 55.375977394236, 
     "country": "United Arab Emirates"
    }, 
    "id": "211589962195554", 
    "name": "Dubai Modern High"
   }
  }
 }, 
 "10153037233122870": {
  "location": {
   "0": {
    "location": {
     "city": "Singapore", 
     "zip": "138597 ", 
     "country": "Singapore", 
     "longitude": 103.77375402004, 
     "street": "Tembusu College Office University Town, NUS 26 College Avenue East, #B1-01", 
     "latitude": 1.3059742186871
    }, 
    "id": "131344286953020", 
    "name": "Tembusu College"
   }
  }
 }, 
 "10155288301495177": {
  "location": {
   "0": {
    "location": {
     "city": "Singapore", 
     "zip": "138607", 
     "country": "Singapore", 
     "longitude": 103.77340246806, 
     "street": "2 College Avenue West, #01-02 Stephen Riady Centre", 
     "latitude": 1.3048918342112
    }, 
    "id": "161192807267810", 
    "name": "NUS UTown"
   }
  }
 }, 
 "10204138159594451": {
  "location": {
   "0": {
    "location": {
     "city": "Singapore", 
     "zip": "138607", 
     "country": "Singapore", 
     "longitude": 103.77340246806, 
     "street": "2 College Avenue West, #01-02 Stephen Riady Centre", 
     "latitude": 1.3048918342112
    }, 
    "id": "161192807267810", 
    "name": "NUS UTown"
   }
  }
 }, 
 "10153144885664344": {
  "location": {
   "0": {
    "start_time": "2013-07-05T12:00:00+0400", 
    "location": "Meydan IMAX Theatre", 
    "id": "611735025517280", 
    "name": "IGN Convention"
   }
  }
 }, 
 "846805418713207": {
  "location": {
   "0": {
    "location": {
     "city": "Singapore", 
     "zip": "138607", 
     "country": "Singapore", 
     "longitude": 103.77340246806, 
     "street": "2 College Avenue West, #01-02 Stephen Riady Centre", 
     "latitude": 1.3048918342112
    }, 
    "id": "161192807267810", 
    "name": "NUS UTown"
   }
  }
 }, 
 "10205511312317813": {
  "location": {
   "0": {
    "location": {
     "city": "Singapore", 
     "zip": "119244", 
     "country": "Singapore", 
     "longitude": 103.77328088643, 
     "street": "11 Kent Ridge Drive", 
     "latitude": 1.2930908701343
    }, 
    "id": "154949914560762", 
    "name": "Shaw Foundation Alumni House"
   }
  }
 }, 
 "base_id": "10206072665514139", 
 "10205701588235363": {
  "location": {
   "0": {
    "location": {
     "city": "Singapore", 
     "zip": "138607", 
     "country": "Singapore", 
     "longitude": 103.77340246806, 
     "street": "2 College Avenue West, #01-02 Stephen Riady Centre", 
     "latitude": 1.3048918342112
    }, 
    "id": "161192807267810", 
    "name": "NUS UTown"
   }
  }
 }, 
 "10203909214915173": {
  "location": {
   "0": {
    "location": {
     "city": "Singapore", 
     "zip": "138607", 
     "country": "Singapore", 
     "longitude": 103.77340246806, 
     "street": "2 College Avenue West, #01-02 Stephen Riady Centre", 
     "latitude": 1.3048918342112
    }, 
    "id": "161192807267810", 
    "name": "NUS UTown"
   }
  }
 }, 
 "10152725474493059": {
  "location": {
   "0": {
    "location": {
     "latitude": 1.3026154204401, 
     "city": "Singapore", 
     "street": "Kallang Bahru", 
     "longitude": 103.87650841638, 
     "country": "Singapore"
    }, 
    "id": "194417320585972", 
    "name": "Kallang"
   }
  }
 }, 
 "10153860455248849": {
  "location": {
   "0": {
    "location": {
     "latitude": 25.153848555193, 
     "city": "Dubai", 
     "longitude": 55.375735678774, 
     "country": "United Arab Emirates"
    }, 
    "id": "108226382533047", 
    "name": "Dubai Modern High School"
   }, 
   "1": {
    "location": {
     "latitude": 25.153848555193, 
     "city": "Dubai", 
     "longitude": 55.375735678774, 
     "country": "United Arab Emirates"
    }, 
    "id": "108226382533047", 
    "name": "Dubai Modern High School"
   }, 
   "2": {
    "location": {
     "latitude": 25.153455689762, 
     "city": "Dubai", 
     "longitude": 55.375977394236, 
     "country": "United Arab Emirates"
    }, 
    "id": "211589962195554", 
    "name": "Dubai Modern High"
   }, 
   "3": {
    "location": {
     "city": "Abu Dhabi", 
     "zip": "02", 
     "country": "United Arab Emirates", 
     "longitude": 54.62641, 
     "street": "Yas Island", 
     "latitude": 24.31561
    }, 
    "id": "232001520191613", 
    "name": "Yas Island, Abu Dhab\u0131"
   }, 
   "4": {
    "location": {
     "latitude": 24.466471354273, 
     "city": "Abu Dhabi", 
     "street": "Yas Island", 
     "longitude": 54.59830897911, 
     "country": "United Arab Emirates"
    }, 
    "id": "118105734913664", 
    "name": "Yas Island"
   }
  }
 }, 
 "10206160583874729": {
  "location": {
   "0": {
    "location": {
     "city": "Singapore", 
     "zip": "119077", 
     "country": "Singapore", 
     "longitude": 103.77199228062, 
     "street": "21 Lower Kent Ridge Road, Singapore 119077", 
     "latitude": 1.2994982051199
    }, 
    "id": "176017608539", 
    "name": "National University of Singapore"
   }, 
   "1": {
    "location": {
     "city": "Singapore", 
     "zip": "119077", 
     "country": "Singapore", 
     "longitude": 103.77199228062, 
     "street": "21 Lower Kent Ridge Road, Singapore 119077", 
     "latitude": 1.2994982051199
    }, 
    "id": "176017608539", 
    "name": "National University of Singapore"
   }
  }
 }, 
 "10152933202209597": {
  "location": {
   "0": {
    "location": {
     "city": "Singapore", 
     "zip": "449035", 
     "country": "Singapore", 
     "longitude": 103.9198217678, 
     "street": "20 Marine Vista", 
     "latitude": 1.3062203063941
    }, 
    "id": "171751489503613", 
    "name": "Victoria Junior College"
   }, 
   "1": {
    "location": {
     "city": "Singapore", 
     "zip": "449035", 
     "country": "Singapore", 
     "longitude": 103.9198217678, 
     "street": "20 Marine Vista", 
     "latitude": 1.3062203063941
    }, 
    "id": "171751489503613", 
    "name": "Victoria Junior College"
   }, 
   "2": {
    "location": {
     "city": "Singapore", 
     "zip": "081007", 
     "country": "Singapore", 
     "longitude": 103.84339729549, 
     "street": "APT/BLK 7 TANJONG PAGAR PLAZA #01-104B", 
     "latitude": 1.2767333055917
    }, 
    "id": "148746791950619", 
    "name": "Ikkousha Hakata Ramen Singapore - \u535a\u591a\u4e00\u5e78\u820e"
   }, 
   "3": {
    "location": {
     "city": "Singapore", 
     "zip": "081007", 
     "country": "Singapore", 
     "longitude": 103.84339729549, 
     "street": "APT/BLK 7 TANJONG PAGAR PLAZA #01-104B", 
     "latitude": 1.2767333055917
    }, 
    "id": "148746791950619", 
    "name": "Ikkousha Hakata Ramen Singapore - \u535a\u591a\u4e00\u5e78\u820e"
   }, 
   "4": {
    "location": {
     "city": "Singapore", 
     "zip": "138597 ", 
     "country": "Singapore", 
     "longitude": 103.77375402004, 
     "street": "Tembusu College Office University Town, NUS 26 College Avenue East, #B1-01", 
     "latitude": 1.3059742186871
    }, 
    "id": "131344286953020", 
    "name": "Tembusu College"
   }, 
   "5": {
    "location": {
     "city": "Singapore", 
     "zip": "138597 ", 
     "country": "Singapore", 
     "longitude": 103.77375402004, 
     "street": "Tembusu College Office University Town, NUS 26 College Avenue East, #B1-01", 
     "latitude": 1.3059742186871
    }, 
    "id": "131344286953020", 
    "name": "Tembusu College"
   }
  }
 }, 
 "10153076480073780": {
  "location": {
   "0": {
    "location": {
     "city": "Singapore", 
     "zip": "737919", 
     "country": "Singapore", 
     "longitude": 103.78617104895, 
     "street": "25 Rosewood Drive", 
     "latitude": 1.4304260062671
    }, 
    "id": "129518463783873", 
    "name": "Casablanca Condo"
   }
  }
 }, 
 "10205940198645820": {
  "location": {
   "0": {
    "location": {
     "latitude": 25.153848555193, 
     "city": "Dubai", 
     "longitude": 55.375735678774, 
     "country": "United Arab Emirates"
    }, 
    "id": "108226382533047", 
    "name": "Dubai Modern High School"
   }, 
   "1": {
    "location": {
     "latitude": 25.153455689762, 
     "city": "Dubai", 
     "longitude": 55.375977394236, 
     "country": "United Arab Emirates"
    }, 
    "id": "211589962195554", 
    "name": "Dubai Modern High"
   }, 
   "2": {
    "location": {
     "latitude": 25.153848555193, 
     "city": "Dubai", 
     "longitude": 55.375735678774, 
     "country": "United Arab Emirates"
    }, 
    "id": "108226382533047", 
    "name": "Dubai Modern High School"
   }, 
   "3": {
    "location": {
     "latitude": 25.153848555193, 
     "city": "Dubai", 
     "longitude": 55.375735678774, 
     "country": "United Arab Emirates"
    }, 
    "id": "108226382533047", 
    "name": "Dubai Modern High School"
   }, 
   "4": {
    "location": {
     "latitude": 25.153848555193, 
     "city": "Dubai", 
     "longitude": 55.375735678774, 
     "country": "United Arab Emirates"
    }, 
    "id": "108226382533047", 
    "name": "Dubai Modern High School"
   }, 
   "5": {
    "location": {
     "latitude": 25.153848555193, 
     "city": "Dubai", 
     "longitude": 55.375735678774, 
     "country": "United Arab Emirates"
    }, 
    "id": "108226382533047", 
    "name": "Dubai Modern High School"
   }, 
   "6": {
    "location": {
     "latitude": 25.153848555193, 
     "city": "Dubai", 
     "longitude": 55.375735678774, 
     "country": "United Arab Emirates"
    }, 
    "id": "108226382533047", 
    "name": "Dubai Modern High School"
   }
  }
 }, 
 "10153193744711514": {
  "location": {
   "0": {
    "location": {
     "city": "Singapore", 
     "zip": "138597 ", 
     "country": "Singapore", 
     "longitude": 103.77375402004, 
     "street": "Tembusu College Office University Town, NUS 26 College Avenue East, #B1-01", 
     "latitude": 1.3059742186871
    }, 
    "id": "131344286953020", 
    "name": "Tembusu College"
   }, 
   "1": {
    "location": {
     "city": "Singapore", 
     "zip": "138597 ", 
     "country": "Singapore", 
     "longitude": 103.77375402004, 
     "street": "Tembusu College Office University Town, NUS 26 College Avenue East, #B1-01", 
     "latitude": 1.3059742186871
    }, 
    "id": "131344286953020", 
    "name": "Tembusu College"
   }
  }
 }, 
 "10206142723864893": {
  "location": {
   "0": {
    "location": {
     "city": "Singapore", 
     "zip": "119077", 
     "country": "Singapore", 
     "longitude": 103.77199228062, 
     "street": "21 Lower Kent Ridge Road, Singapore 119077", 
     "latitude": 1.2994982051199
    }, 
    "id": "176017608539", 
    "name": "National University of Singapore"
   }, 
   "1": {
    "location": {
     "city": "Singapore", 
     "zip": "119077", 
     "country": "Singapore", 
     "longitude": 103.77199228062, 
     "street": "21 Lower Kent Ridge Road, Singapore 119077", 
     "latitude": 1.2994982051199
    }, 
    "id": "176017608539", 
    "name": "National University of Singapore"
   }, 
   "2": {
    "location": {
     "city": "Singapore", 
     "zip": "138607", 
     "country": "Singapore", 
     "longitude": 103.77340246806, 
     "street": "2 College Avenue West, #01-02 Stephen Riady Centre", 
     "latitude": 1.3048918342112
    }, 
    "id": "161192807267810", 
    "name": "NUS UTown"
   }
  }
 }
}