{
 "10205746994212206": {
  "location": {
   "0": {
    "start_time": "2014-04-21T18:00:00+0800", 
    "location": "Yale-NUS College", 
    "id": "278836072288290", 
    "name": "MMXIV: Dinner and Dance"
   }
  }
 }, 
 "10152758111842151": {
  "location": {
   "0": {
    "location": {
     "city": "Singapore", 
     "zip": "esa informacion es clacificada", 
     "country": "Singapore", 
     "longitude": 103.83606552965, 
     "street": "2 Orchard Link", 
     "latitude": 1.3007442051088, 
     "located_in": "168911576531523"
    }, 
    "id": "133002123435912", 
    "name": "Scape Warehouse"
   }
  }
 }, 
 "10152889047623801": {
  "location": {
   "0": {
    "location": {
     "city": "Singapore", 
     "zip": "Singapore 138614", 
     "country": "Singapore", 
     "longitude": 103.77300819214, 
     "street": "6 College Avenue East, #B1-01", 
     "latitude": 1.3083388453214
    }, 
    "id": "237886262902734", 
    "name": "Yale-NUS College Admissions"
   }
  }
 }, 
 "874529479270133": {
  "location": {
   "0": {
    "location": {
     "latitude": 41.31, 
     "longitude": -72.923611111111
    }, 
    "id": "108541499165950", 
    "name": "New Haven, Connecticut"
   }
  }
 }, 
 "10152808606315765": {
  "location": {
   "0": {
    "location": {
     "city": "Singapore", 
     "zip": "57", 
     "country": "Singapore", 
     "longitude": 103.84312850858, 
     "latitude": 1.3469430076173, 
     "located_in": "187522364593684"
    }, 
    "id": "205046542850478", 
    "name": "RI (JC)"
   }, 
   "1": {
    "location": {
     "city": "Singapore", 
     "zip": "57", 
     "country": "Singapore", 
     "longitude": 103.84312850858, 
     "latitude": 1.3469430076173, 
     "located_in": "187522364593684"
    }, 
    "id": "205046542850478", 
    "name": "RI (JC)"
   }
  }
 }, 
 "10155344055110644": {
  "location": {
   "0": {
    "location": {
     "city": "Singapore", 
     "zip": "60", 
     "country": "Singapore", 
     "longitude": 103.7390463629, 
     "street": "1.3125,103.7444444", 
     "latitude": 1.3199466535782
    }, 
    "id": "189991624374145", 
    "name": "Pandan Reservoir"
   }
  }
 }, 
 "10206472195548744": {
  "location": {
   "0": {
    "location": {
     "city": "Singapore", 
     "zip": "139745", 
     "country": "Singapore", 
     "longitude": 103.7852122182, 
     "street": "25 Dover Close East", 
     "latitude": 1.3030632205372
    }, 
    "id": "163968190300589", 
    "name": "Anglo-Chinese Junior College"
   }
  }
 }, 
 "702541379865562": {
  "location": {
   "0": {
    "location": {
     "city": "Calcutta", 
     "zip": "700054", 
     "country": "India", 
     "longitude": 88.400796451252, 
     "street": "164/1 Maniktala Main Road, 9th Floor [Beside Apollo Gleaneagles Hospital EM Bypass", 
     "latitude": 22.577807488535
    }, 
    "id": "211106118905826", 
    "name": "Mani Square Mall"
   }, 
   "1": {
    "location": {
     "city": "Calcutta", 
     "zip": "700054", 
     "country": "India", 
     "longitude": 88.400796451252, 
     "street": "164/1 Maniktala Main Road, 9th Floor [Beside Apollo Gleaneagles Hospital EM Bypass", 
     "latitude": 22.577807488535
    }, 
    "id": "211106118905826", 
    "name": "Mani Square Mall"
   }
  }
 }, 
 "10152914763259262": {
  "location": {
   "0": {
    "location": {
     "city": "Singapore", 
     "zip": "57", 
     "country": "Singapore", 
     "longitude": 103.84312850858, 
     "latitude": 1.3469430076173, 
     "located_in": "187522364593684"
    }, 
    "id": "205046542850478", 
    "name": "RI (JC)"
   }, 
   "1": {
    "location": {
     "city": "Singapore", 
     "zip": "57", 
     "country": "Singapore", 
     "longitude": 103.84312850858, 
     "latitude": 1.3469430076173, 
     "located_in": "187522364593684"
    }, 
    "id": "205046542850478", 
    "name": "RI (JC)"
   }
  }
 }, 
 "10153083944573257": {
  "location": {
   "0": {
    "location": {
     "latitude": 41.31, 
     "longitude": -72.923611111111
    }, 
    "id": "108541499165950", 
    "name": "New Haven, Connecticut"
   }, 
   "1": {
    "location": {
     "city": "Agawam", 
     "zip": "01001", 
     "country": "United States", 
     "longitude": -72.615667102052, 
     "state": "MA", 
     "latitude": 42.037672020075
    }, 
    "id": "52129033739", 
    "name": "Six Flags New England"
   }, 
   "2": {
    "location": {
     "latitude": 41.31, 
     "longitude": -72.923611111111
    }, 
    "id": "108541499165950", 
    "name": "New Haven, Connecticut"
   }
  }
 }, 
 "10152785693631446": {
  "location": {
   "0": {
    "location": {
     "city": "Kent Ridge", 
     "zip": "119279", 
     "country": "Singapore", 
     "longitude": 103.77217930799, 
     "street": "50 Kent Ridge Crescent, National University of Singapore", 
     "latitude": 1.3017797541883
    }, 
    "id": "107498635997871", 
    "name": "University Cultural Centre"
   }, 
   "1": {
    "location": {
     "latitude": 40.7142, 
     "longitude": -74.0064, 
     "located_in": "104048972965193"
    }, 
    "id": "108424279189115", 
    "name": "New York, New York"
   }, 
   "2": {
    "location": {
     "city": "Mystic", 
     "zip": "06355", 
     "country": "United States", 
     "longitude": -71.953264097181, 
     "state": "CT", 
     "latitude": 41.373410917558
    }, 
    "id": "187099324676060", 
    "name": "Mystic Seaport & Aquarium"
   }, 
   "3": {
    "location": {
     "city": "Singapore", 
     "zip": "238868", 
     "country": "Singapore", 
     "longitude": 103.83174413786, 
     "street": "Singapore", 
     "latitude": 1.3049808735029
    }, 
    "id": "205236476178156", 
    "name": "Shaw Cinema Lido Orchard"
   }, 
   "4": {
    "location": {
     "city": "Singapore", 
     "zip": "238868", 
     "country": "Singapore", 
     "longitude": 103.83174413786, 
     "street": "Singapore", 
     "latitude": 1.3049808735029
    }, 
    "id": "205236476178156", 
    "name": "Shaw Cinema Lido Orchard"
   }
  }
 }, 
 "10203442219487339": {
  "location": {
   "0": {
    "location": {
     "latitude": 1.4078810143117, 
     "city": "Singapore", 
     "longitude": 103.74763040405, 
     "country": "Singapore"
    }, 
    "id": "135724386504363", 
    "name": "Novena"
   }
  }
 }, 
 "10152781037109226": {
  "location": {
   "0": {
    "location": {
     "city": "Singapore", 
     "zip": "038981", 
     "country": "Singapore", 
     "longitude": 103.85570414539, 
     "street": "1 Esplanade Drive", 
     "latitude": 1.2894301765932
    }, 
    "id": "116177868444945", 
    "name": "Esplanade \u2013 Theatres On The Bay"
   }, 
   "1": {
    "location": {
     "city": "New Haven", 
     "zip": "06511", 
     "country": "United States", 
     "longitude": -72.92861155789, 
     "state": "CT", 
     "latitude": 41.309985165387
    }, 
    "id": "374809010319", 
    "name": "Yale University"
   }
  }
 }, 
 "10155296683725029": {
  "location": {
   "0": {
    "location": {
     "city": "Kent Ridge", 
     "zip": "119279", 
     "country": "Singapore", 
     "longitude": 103.77217930799, 
     "street": "50 Kent Ridge Crescent, National University of Singapore", 
     "latitude": 1.3017797541883
    }, 
    "id": "107498635997871", 
    "name": "University Cultural Centre"
   }, 
   "1": {
    "location": {
     "latitude": 40.7142, 
     "longitude": -74.0064, 
     "located_in": "104048972965193"
    }, 
    "id": "108424279189115", 
    "name": "New York, New York"
   }, 
   "2": {
    "location": {
     "latitude": 41.31, 
     "longitude": -72.923611111111
    }, 
    "id": "108541499165950", 
    "name": "New Haven, Connecticut"
   }, 
   "3": {
    "location": {
     "city": "New York", 
     "zip": "10017", 
     "country": "United States", 
     "longitude": -73.967328457081, 
     "state": "NY", 
     "latitude": 40.751532576283
    }, 
    "id": "414763148578146", 
    "name": "United Nations NYC"
   }, 
   "4": {
    "location": {
     "latitude": 41.31, 
     "longitude": -72.923611111111
    }, 
    "id": "108541499165950", 
    "name": "New Haven, Connecticut"
   }
  }
 }, 
 "10153192247899031": {
  "location": {
   "0": {
    "location": {
     "city": "New York", 
     "zip": "10017-3823", 
     "country": "United States", 
     "longitude": -73.981394757146, 
     "state": "NY", 
     "street": "50 Vanderbilt Ave", 
     "latitude": 40.754845032317
    }, 
    "id": "120790267936584", 
    "name": "Yale Club of New York City"
   }, 
   "1": {
    "location": {
     "latitude": 41.31, 
     "longitude": -72.923611111111
    }, 
    "id": "108541499165950", 
    "name": "New Haven, Connecticut"
   }
  }
 }, 
 "10205370433251711": {
  "location": {
   "0": {
    "location": {
     "latitude": 41.31, 
     "longitude": -72.923611111111
    }, 
    "id": "108541499165950", 
    "name": "New Haven, Connecticut"
   }, 
   "1": {
    "location": {
     "latitude": 41.31, 
     "longitude": -72.923611111111
    }, 
    "id": "108541499165950", 
    "name": "New Haven, Connecticut"
   }, 
   "2": {
    "location": {
     "latitude": 41.31, 
     "longitude": -72.923611111111
    }, 
    "id": "108541499165950", 
    "name": "New Haven, Connecticut"
   }
  }
 }, 
 "10152831510154436": {
  "location": {
   "0": {
    "location": {
     "city": "Kent Ridge", 
     "zip": "119279", 
     "country": "Singapore", 
     "longitude": 103.77217930799, 
     "street": "50 Kent Ridge Crescent, National University of Singapore", 
     "latitude": 1.3017797541883
    }, 
    "id": "107498635997871", 
    "name": "University Cultural Centre"
   }, 
   "1": {
    "location": {
     "latitude": 41.31, 
     "longitude": -72.923611111111
    }, 
    "id": "108541499165950", 
    "name": "New Haven, Connecticut"
   }, 
   "2": {
    "location": {
     "city": "Singapore", 
     "zip": "Singapore 138614", 
     "country": "Singapore", 
     "longitude": 103.77300819214, 
     "street": "6 College Avenue East, #B1-01", 
     "latitude": 1.3083388453214
    }, 
    "id": "237886262902734", 
    "name": "Yale-NUS College Admissions"
   }
  }
 }, 
 "10206387265944361": {
  "location": {
   "0": {
    "location": {
     "latitude": 1.38148333333, 
     "city": "Pasir Ris", 
     "zip": "51", 
     "longitude": 103.9509, 
     "country": "Singapore"
    }, 
    "id": "142827132400805", 
    "name": "Pasir Ris Park"
   }
  }
 }, 
 "931248863594663": {
  "location": {
   "0": {
    "location": {
     "latitude": 1.38148333333, 
     "city": "Pasir Ris", 
     "zip": "51", 
     "longitude": 103.9509, 
     "country": "Singapore"
    }, 
    "id": "142827132400805", 
    "name": "Pasir Ris Park"
   }, 
   "1": {
    "location": {
     "city": "New York", 
     "zip": "10017", 
     "country": "United States", 
     "longitude": -73.967328457081, 
     "state": "NY", 
     "latitude": 40.751532576283
    }, 
    "id": "414763148578146", 
    "name": "United Nations NYC"
   }
  }
 }, 
 "10205096133137274": {
  "location": {
   "0": {
    "location": {
     "city": "Singapore", 
     "zip": "238868", 
     "country": "Singapore", 
     "longitude": 103.83174413786, 
     "street": "Singapore", 
     "latitude": 1.3049808735029
    }, 
    "id": "205236476178156", 
    "name": "Shaw Cinema Lido Orchard"
   }
  }
 }, 
 "10153227716478783": {
  "location": {
   "0": {
    "location": {
     "city": "Singapore", 
     "zip": "Singapore 138614", 
     "country": "Singapore", 
     "longitude": 103.77300819214, 
     "street": "6 College Avenue East, #B1-01", 
     "latitude": 1.3083388453214
    }, 
    "id": "237886262902734", 
    "name": "Yale-NUS College Admissions"
   }
  }
 }, 
 "10206151976819774": {
  "location": {
   "0": {
    "location": {
     "city": "Kent Ridge", 
     "zip": "119279", 
     "country": "Singapore", 
     "longitude": 103.77217930799, 
     "street": "50 Kent Ridge Crescent, National University of Singapore", 
     "latitude": 1.3017797541883
    }, 
    "id": "107498635997871", 
    "name": "University Cultural Centre"
   }, 
   "1": {
    "location": {
     "latitude": 40.7142, 
     "longitude": -74.0064, 
     "located_in": "104048972965193"
    }, 
    "id": "108424279189115", 
    "name": "New York, New York"
   }, 
   "2": {
    "location": {
     "city": "Agawam", 
     "zip": "01001", 
     "country": "United States", 
     "longitude": -72.615667102052, 
     "state": "MA", 
     "latitude": 42.037672020075
    }, 
    "id": "52129033739", 
    "name": "Six Flags New England"
   }
  }
 }, 
 "10152867936611785": {
  "location": {
   "0": {
    "location": {
     "latitude": 41.31, 
     "longitude": -72.923611111111
    }, 
    "id": "108541499165950", 
    "name": "New Haven, Connecticut"
   }, 
   "1": {
    "location": {
     "latitude": 41.31, 
     "longitude": -72.923611111111
    }, 
    "id": "108541499165950", 
    "name": "New Haven, Connecticut"
   }, 
   "2": {
    "location": {
     "latitude": 41.31, 
     "longitude": -72.923611111111
    }, 
    "id": "108541499165950", 
    "name": "New Haven, Connecticut"
   }, 
   "3": {
    "location": {
     "latitude": 41.31, 
     "longitude": -72.923611111111
    }, 
    "id": "108541499165950", 
    "name": "New Haven, Connecticut"
   }
  }
 }, 
 "10152829339379685": {
  "location": {
   "0": {
    "location": {
     "latitude": 41.31, 
     "longitude": -72.923611111111
    }, 
    "id": "108541499165950", 
    "name": "New Haven, Connecticut"
   }
  }
 }, 
 "10153024770642631": {
  "location": {
   "0": {
    "location": {
     "city": "Singapore", 
     "zip": "60", 
     "country": "Singapore", 
     "longitude": 103.7390463629, 
     "street": "1.3125,103.7444444", 
     "latitude": 1.3199466535782
    }, 
    "id": "189991624374145", 
    "name": "Pandan Reservoir"
   }, 
   "1": {
    "location": {
     "city": "Singapore", 
     "zip": "Singapore 138614", 
     "country": "Singapore", 
     "longitude": 103.77300819214, 
     "street": "6 College Avenue East, #B1-01", 
     "latitude": 1.3083388453214
    }, 
    "id": "237886262902734", 
    "name": "Yale-NUS College Admissions"
   }, 
   "2": {
    "location": {
     "city": "New Haven", 
     "zip": "06511", 
     "country": "United States", 
     "longitude": -72.92861155789, 
     "state": "CT", 
     "latitude": 41.309985165387
    }, 
    "id": "374809010319", 
    "name": "Yale University"
   }, 
   "3": {
    "location": {
     "city": "New Haven", 
     "zip": "06511", 
     "country": "United States", 
     "longitude": -72.92861155789, 
     "state": "CT", 
     "latitude": 41.309985165387
    }, 
    "id": "374809010319", 
    "name": "Yale University"
   }, 
   "4": {
    "location": {
     "latitude": 41.31, 
     "longitude": -72.923611111111
    }, 
    "id": "108541499165950", 
    "name": "New Haven, Connecticut"
   }
  }
 }, 
 "10205741508633866": {
  "location": {
   "0": {
    "location": {
     "latitude": 1.38148333333, 
     "city": "Pasir Ris", 
     "zip": "51", 
     "longitude": 103.9509, 
     "country": "Singapore"
    }, 
    "id": "142827132400805", 
    "name": "Pasir Ris Park"
   }
  }
 }, 
 "10203393792717912": {
  "location": {
   "0": {
    "location": {
     "city": "Singapore", 
     "zip": "57", 
     "country": "Singapore", 
     "longitude": 103.84312850858, 
     "latitude": 1.3469430076173, 
     "located_in": "187522364593684"
    }, 
    "id": "205046542850478", 
    "name": "RI (JC)"
   }, 
   "1": {
    "location": {
     "city": "Singapore", 
     "zip": "57", 
     "country": "Singapore", 
     "longitude": 103.84312850858, 
     "latitude": 1.3469430076173, 
     "located_in": "187522364593684"
    }, 
    "id": "205046542850478", 
    "name": "RI (JC)"
   }, 
   "2": {
    "location": {
     "city": "Singapore", 
     "zip": "57", 
     "country": "Singapore", 
     "longitude": 103.84312850858, 
     "latitude": 1.3469430076173, 
     "located_in": "187522364593684"
    }, 
    "id": "205046542850478", 
    "name": "RI (JC)"
   }
  }
 }, 
 "1077373112278211": {
  "location": {
   "0": {
    "location": {
     "city": "Singapore", 
     "zip": "57", 
     "country": "Singapore", 
     "longitude": 103.84312850858, 
     "latitude": 1.3469430076173, 
     "located_in": "187522364593684"
    }, 
    "id": "205046542850478", 
    "name": "RI (JC)"
   }, 
   "1": {
    "location": {
     "city": "Singapore", 
     "zip": "57", 
     "country": "Singapore", 
     "longitude": 103.84312850858, 
     "latitude": 1.3469430076173, 
     "located_in": "187522364593684"
    }, 
    "id": "205046542850478", 
    "name": "RI (JC)"
   }, 
   "2": {
    "location": {
     "city": "Singapore", 
     "zip": "57", 
     "country": "Singapore", 
     "longitude": 103.84312850858, 
     "latitude": 1.3469430076173, 
     "located_in": "187522364593684"
    }, 
    "id": "205046542850478", 
    "name": "RI (JC)"
   }, 
   "3": {
    "location": {
     "city": "Singapore", 
     "zip": "57", 
     "country": "Singapore", 
     "longitude": 103.84312850858, 
     "latitude": 1.3469430076173, 
     "located_in": "187522364593684"
    }, 
    "id": "205046542850478", 
    "name": "RI (JC)"
   }
  }
 }, 
 "914118518610414": {
  "location": {
   "0": {
    "location": {
     "city": "Calcutta", 
     "zip": "700054", 
     "country": "India", 
     "longitude": 88.400796451252, 
     "street": "164/1 Maniktala Main Road, 9th Floor [Beside Apollo Gleaneagles Hospital EM Bypass", 
     "latitude": 22.577807488535
    }, 
    "id": "211106118905826", 
    "name": "Mani Square Mall"
   }, 
   "1": {
    "location": {
     "city": "Calcutta", 
     "zip": "700054", 
     "country": "India", 
     "longitude": 88.400796451252, 
     "street": "164/1 Maniktala Main Road, 9th Floor [Beside Apollo Gleaneagles Hospital EM Bypass", 
     "latitude": 22.577807488535
    }, 
    "id": "211106118905826", 
    "name": "Mani Square Mall"
   }
  }
 }, 
 "10152954512705186": {
  "location": {
   "0": {
    "location": {
     "city": "Singapore", 
     "zip": "138614", 
     "country": "Singapore", 
     "longitude": 103.77312591916, 
     "street": "6 College Avenue East", 
     "latitude": 1.3083768512884
    }, 
    "id": "683119715051284", 
    "name": "Yale-NUS College"
   }
  }
 }, 
 "10204281810710101": {
  "location": {
   "0": {
    "location": {
     "latitude": 1.3025150002815, 
     "city": "Singapore", 
     "longitude": 103.87661539041, 
     "country": "Singapore"
    }, 
    "id": "137858336279207", 
    "name": "Kallang Bowl @ Kallang Leisure Park"
   }
  }
 }, 
 "10206333888528883": {
  "location": {
   "0": {
    "location": {
     "city": "Kent Ridge", 
     "zip": "119279", 
     "country": "Singapore", 
     "longitude": 103.77217930799, 
     "street": "50 Kent Ridge Crescent, National University of Singapore", 
     "latitude": 1.3017797541883
    }, 
    "id": "107498635997871", 
    "name": "University Cultural Centre"
   }, 
   "1": {
    "location": {
     "city": "Singapore", 
     "zip": "60", 
     "country": "Singapore", 
     "longitude": 103.7390463629, 
     "street": "1.3125,103.7444444", 
     "latitude": 1.3199466535782
    }, 
    "id": "189991624374145", 
    "name": "Pandan Reservoir"
   }, 
   "2": {
    "location": {
     "latitude": 40.7142, 
     "longitude": -74.0064, 
     "located_in": "104048972965193"
    }, 
    "id": "108424279189115", 
    "name": "New York, New York"
   }, 
   "3": {
    "location": {
     "city": "Agawam", 
     "zip": "01001", 
     "country": "United States", 
     "longitude": -72.615667102052, 
     "state": "MA", 
     "latitude": 42.037672020075
    }, 
    "id": "52129033739", 
    "name": "Six Flags New England"
   }, 
   "4": {
    "location": {
     "city": "Agawam", 
     "zip": "01001", 
     "country": "United States", 
     "longitude": -72.615667102052, 
     "state": "MA", 
     "latitude": 42.037672020075
    }, 
    "id": "52129033739", 
    "name": "Six Flags New England"
   }, 
   "5": {
    "location": {
     "city": "Agawam", 
     "zip": "01001", 
     "country": "United States", 
     "longitude": -72.615667102052, 
     "state": "MA", 
     "latitude": 42.037672020075
    }, 
    "id": "52129033739", 
    "name": "Six Flags New England"
   }
  }
 }, 
 "1554279208184812": {
  "location": {
   "0": {
    "location": {
     "latitude": 1.38148333333, 
     "city": "Pasir Ris", 
     "zip": "51", 
     "longitude": 103.9509, 
     "country": "Singapore"
    }, 
    "id": "142827132400805", 
    "name": "Pasir Ris Park"
   }
  }
 }, 
 "10152830447556312": {
  "location": {
   "0": {
    "location": {
     "city": "Singapore", 
     "zip": "esa informacion es clacificada", 
     "country": "Singapore", 
     "longitude": 103.83606552965, 
     "street": "2 Orchard Link", 
     "latitude": 1.3007442051088, 
     "located_in": "168911576531523"
    }, 
    "id": "133002123435912", 
    "name": "Scape Warehouse"
   }
  }
 }, 
 "10204436320842894": {
  "location": {
   "0": {
    "location": {
     "city": "New Delhi", 
     "zip": "700001", 
     "country": "India", 
     "longitude": 88.3740687129, 
     "latitude": 22.5807088892, 
     "located_in": "106517799384578"
    }, 
    "id": "152164611567581", 
    "name": "Kolkata North"
   }
  }
 }, 
 "10152858748368621": {
  "location": {
   "0": {
    "location": {
     "city": "Singapore", 
     "zip": "60", 
     "country": "Singapore", 
     "longitude": 103.7390463629, 
     "street": "1.3125,103.7444444", 
     "latitude": 1.3199466535782
    }, 
    "id": "189991624374145", 
    "name": "Pandan Reservoir"
   }, 
   "1": {
    "location": {
     "city": "Singapore", 
     "zip": "Singapore 138614", 
     "country": "Singapore", 
     "longitude": 103.77300819214, 
     "street": "6 College Avenue East, #B1-01", 
     "latitude": 1.3083388453214
    }, 
    "id": "237886262902734", 
    "name": "Yale-NUS College Admissions"
   }
  }
 }, 
 "10206557553966501": {
  "location": {
   "0": {
    "location": {
     "latitude": 1.29306, 
     "longitude": 103.856, 
     "located_in": "240852582604992"
    }, 
    "id": "105565836144069", 
    "name": "Singapore"
   }
  }
 }, 
 "10202621848986230": {
  "location": {
   "0": {
    "location": {
     "latitude": 15.561284161277, 
     "city": "Goa", 
     "street": "Baga beach", 
     "longitude": 73.749374030573, 
     "country": "India"
    }, 
    "id": "169240516442006", 
    "name": "Brittos"
   }
  }
 }, 
 "10204814246250194": {
  "location": {
   "0": {
    "location": {
     "latitude": 1.38148333333, 
     "city": "Pasir Ris", 
     "zip": "51", 
     "longitude": 103.9509, 
     "country": "Singapore"
    }, 
    "id": "142827132400805", 
    "name": "Pasir Ris Park"
   }
  }
 }, 
 "10206291040625043": {
  "location": {
   "0": {
    "location": {
     "city": "New Delhi", 
     "zip": "700001", 
     "country": "India", 
     "longitude": 88.3740687129, 
     "latitude": 22.5807088892, 
     "located_in": "106517799384578"
    }, 
    "id": "152164611567581", 
    "name": "Kolkata North"
   }
  }
 }, 
 "10152614365176813": {
  "location": {
   "0": {
    "location": {
     "latitude": 1.32159865816, 
     "city": "Singapore", 
     "longitude": 103.858387794, 
     "country": "Singapore"
    }, 
    "id": "279424168838364", 
    "name": "NUS University Cultural Centre"
   }
  }
 }, 
 "10153240657989382": {
  "location": {
   "0": {
    "location": {
     "latitude": 35, 
     "longitude": 135.75, 
     "located_in": "149998798354892"
    }, 
    "id": "106514006053250", 
    "name": "Kyoto, Japan"
   }, 
   "1": {
    "location": {
     "latitude": 35, 
     "longitude": 135.75, 
     "located_in": "149998798354892"
    }, 
    "id": "106514006053250", 
    "name": "Kyoto, Japan"
   }, 
   "2": {
    "location": {
     "latitude": 35, 
     "longitude": 135.75, 
     "located_in": "149998798354892"
    }, 
    "id": "106514006053250", 
    "name": "Kyoto, Japan"
   }, 
   "3": {
    "location": {
     "latitude": 35, 
     "longitude": 135.75, 
     "located_in": "149998798354892"
    }, 
    "id": "106514006053250", 
    "name": "Kyoto, Japan"
   }, 
   "4": {
    "location": {
     "latitude": 35, 
     "longitude": 135.75, 
     "located_in": "149998798354892"
    }, 
    "id": "106514006053250", 
    "name": "Kyoto, Japan"
   }
  }
 }, 
 "10205373770376465": {
  "location": {
   "0": {
    "location": {
     "city": "New Delhi", 
     "zip": "700001", 
     "country": "India", 
     "longitude": 88.3740687129, 
     "latitude": 22.5807088892, 
     "located_in": "106517799384578"
    }, 
    "id": "152164611567581", 
    "name": "Kolkata North"
   }
  }
 }, 
 "10153264017394131": {
  "location": {
   "0": {
    "location": {
     "latitude": 1.38148333333, 
     "city": "Pasir Ris", 
     "zip": "51", 
     "longitude": 103.9509, 
     "country": "Singapore"
    }, 
    "id": "142827132400805", 
    "name": "Pasir Ris Park"
   }
  }
 }, 
 "10152949630538113": {
  "location": {
   "0": {
    "location": {
     "city": "Singapore", 
     "zip": "Singapore 138614", 
     "country": "Singapore", 
     "longitude": 103.77300819214, 
     "street": "6 College Avenue East, #B1-01", 
     "latitude": 1.3083388453214
    }, 
    "id": "237886262902734", 
    "name": "Yale-NUS College Admissions"
   }, 
   "1": {
    "location": {
     "latitude": 1.29306, 
     "longitude": 103.856, 
     "located_in": "240852582604992"
    }, 
    "id": "105565836144069", 
    "name": "Singapore"
   }
  }
 }, 
 "10200402563904699": {
  "location": {
   "0": {
    "location": {
     "city": "Singapore", 
     "zip": "238868", 
     "country": "Singapore", 
     "longitude": 103.83174413786, 
     "street": "Singapore", 
     "latitude": 1.3049808735029
    }, 
    "id": "205236476178156", 
    "name": "Shaw Cinema Lido Orchard"
   }
  }
 }, 
 "10152864464754563": {
  "location": {
   "0": {
    "location": {
     "city": "Singapore", 
     "zip": "60", 
     "country": "Singapore", 
     "longitude": 103.7390463629, 
     "street": "1.3125,103.7444444", 
     "latitude": 1.3199466535782
    }, 
    "id": "189991624374145", 
    "name": "Pandan Reservoir"
   }, 
   "1": {
    "location": {
     "city": "Singapore", 
     "zip": "038981", 
     "country": "Singapore", 
     "longitude": 103.85570414539, 
     "street": "1 Esplanade Drive", 
     "latitude": 1.2894301765932
    }, 
    "id": "116177868444945", 
    "name": "Esplanade \u2013 Theatres On The Bay"
   }, 
   "2": {
    "location": {
     "city": "New Haven", 
     "zip": "06511", 
     "country": "United States", 
     "longitude": -72.92861155789, 
     "state": "CT", 
     "latitude": 41.309985165387
    }, 
    "id": "374809010319", 
    "name": "Yale University"
   }, 
   "3": {
    "location": {
     "city": "New Haven", 
     "zip": "06511", 
     "country": "United States", 
     "longitude": -72.92861155789, 
     "state": "CT", 
     "latitude": 41.309985165387
    }, 
    "id": "374809010319", 
    "name": "Yale University"
   }
  }
 }, 
 "10152632902947234": {
  "location": {
   "0": {
    "location": {
     "city": "Singapore", 
     "zip": "esa informacion es clacificada", 
     "country": "Singapore", 
     "longitude": 103.83606552965, 
     "street": "2 Orchard Link", 
     "latitude": 1.3007442051088, 
     "located_in": "168911576531523"
    }, 
    "id": "133002123435912", 
    "name": "Scape Warehouse"
   }
  }
 }, 
 "10152675396761366": {
  "location": {
   "0": {
    "location": {
     "latitude": 41.31, 
     "longitude": -72.923611111111
    }, 
    "id": "108541499165950", 
    "name": "New Haven, Connecticut"
   }
  }
 }, 
 "10206218422556777": {
  "location": {
   "0": {
    "location": {
     "latitude": 1.38148333333, 
     "city": "Pasir Ris", 
     "zip": "51", 
     "longitude": 103.9509, 
     "country": "Singapore"
    }, 
    "id": "142827132400805", 
    "name": "Pasir Ris Park"
   }
  }
 }, 
 "10204737826137983": {
  "location": {
   "0": {
    "location": {
     "city": "New Delhi", 
     "zip": "700001", 
     "country": "India", 
     "longitude": 88.3740687129, 
     "latitude": 22.5807088892, 
     "located_in": "106517799384578"
    }, 
    "id": "152164611567581", 
    "name": "Kolkata North"
   }
  }
 }, 
 "809011255848219": {
  "location": {
   "0": {
    "location": {
     "city": "Calcutta", 
     "zip": "700032", 
     "country": "India", 
     "longitude": 88.3678, 
     "street": "Jadavpur", 
     "latitude": 22.49281
    }, 
    "id": "141134689286150", 
    "name": "Jadavpur University"
   }, 
   "1": {
    "location": {
     "city": "Calcutta", 
     "zip": "700032", 
     "country": "India", 
     "longitude": 88.3678, 
     "street": "Jadavpur", 
     "latitude": 22.49281
    }, 
    "id": "141134689286150", 
    "name": "Jadavpur University"
   }
  }
 }, 
 "10204101438475433": {
  "location": {
   "0": {
    "location": {
     "city": "Singapore", 
     "zip": "Singapore 138614", 
     "country": "Singapore", 
     "longitude": 103.77300819214, 
     "street": "6 College Avenue East, #B1-01", 
     "latitude": 1.3083388453214
    }, 
    "id": "237886262902734", 
    "name": "Yale-NUS College Admissions"
   }
  }
 }, 
 "10153139043304146": {
  "location": {
   "0": {
    "location": {
     "city": "Singapore", 
     "zip": "237978", 
     "country": "Singapore", 
     "longitude": 103.83612196635, 
     "street": "2 Orchard Link", 
     "latitude": 1.3008029306419
    }, 
    "id": "168911576531523", 
    "name": "SCAPE"
   }
  }
 }, 
 "10153229766721424": {
  "location": {
   "0": {
    "location": {
     "city": "Kent Ridge", 
     "zip": "119279", 
     "country": "Singapore", 
     "longitude": 103.77217930799, 
     "street": "50 Kent Ridge Crescent, National University of Singapore", 
     "latitude": 1.3017797541883
    }, 
    "id": "107498635997871", 
    "name": "University Cultural Centre"
   }, 
   "1": {
    "location": {
     "city": "Singapore", 
     "zip": "60", 
     "country": "Singapore", 
     "longitude": 103.7390463629, 
     "street": "1.3125,103.7444444", 
     "latitude": 1.3199466535782
    }, 
    "id": "189991624374145", 
    "name": "Pandan Reservoir"
   }, 
   "2": {
    "location": {
     "city": "Singapore", 
     "zip": "138614", 
     "country": "Singapore", 
     "longitude": 103.77312591916, 
     "street": "6 College Avenue East", 
     "latitude": 1.3083768512884
    }, 
    "id": "683119715051284", 
    "name": "Yale-NUS College"
   }, 
   "3": {
    "location": {
     "city": "Mystic", 
     "zip": "06355", 
     "country": "United States", 
     "longitude": -71.953264097181, 
     "state": "CT", 
     "latitude": 41.373410917558
    }, 
    "id": "187099324676060", 
    "name": "Mystic Seaport & Aquarium"
   }
  }
 }, 
 "10152859468443978": {
  "location": {
   "0": {
    "location": {
     "city": "Singapore", 
     "zip": "57", 
     "country": "Singapore", 
     "longitude": 103.84312850858, 
     "latitude": 1.3469430076173, 
     "located_in": "187522364593684"
    }, 
    "id": "205046542850478", 
    "name": "RI (JC)"
   }, 
   "1": {
    "location": {
     "city": "Singapore", 
     "zip": "57", 
     "country": "Singapore", 
     "longitude": 103.84312850858, 
     "latitude": 1.3469430076173, 
     "located_in": "187522364593684"
    }, 
    "id": "205046542850478", 
    "name": "RI (JC)"
   }
  }
 }, 
 "10153057100850709": {
  "location": {
   "0": {
    "location": {
     "city": "Singapore", 
     "zip": "esa informacion es clacificada", 
     "country": "Singapore", 
     "longitude": 103.83606552965, 
     "street": "2 Orchard Link", 
     "latitude": 1.3007442051088, 
     "located_in": "168911576531523"
    }, 
    "id": "133002123435912", 
    "name": "Scape Warehouse"
   }
  }
 }, 
 "10202963592325618": {
  "location": {
   "0": {
    "location": {
     "city": "Singapore", 
     "zip": "309937", 
     "country": "Singapore", 
     "longitude": 103.83485252599, 
     "street": "80 Barker Road", 
     "latitude": 1.3200739314046
    }, 
    "id": "182437265126655", 
    "name": "ACS Oldham Hall"
   }
  }
 }, 
 "941414112549100": {
  "location": {
   "0": {
    "location": {
     "city": "Singapore", 
     "zip": "esa informacion es clacificada", 
     "country": "Singapore", 
     "longitude": 103.83606552965, 
     "street": "2 Orchard Link", 
     "latitude": 1.3007442051088, 
     "located_in": "168911576531523"
    }, 
    "id": "133002123435912", 
    "name": "Scape Warehouse"
   }
  }
 }, 
 "10152619115965826": {
  "location": {
   "0": {
    "location": {
     "city": "Singapore", 
     "zip": "237978", 
     "country": "Singapore", 
     "longitude": 103.83612196635, 
     "street": "2 Orchard Link", 
     "latitude": 1.3008029306419
    }, 
    "id": "168911576531523", 
    "name": "SCAPE"
   }
  }
 }, 
 "10206289374904194": {
  "location": {
   "0": {
    "location": {
     "city": "Singapore", 
     "zip": "Singapore 138614", 
     "country": "Singapore", 
     "longitude": 103.77300819214, 
     "street": "6 College Avenue East, #B1-01", 
     "latitude": 1.3083388453214
    }, 
    "id": "237886262902734", 
    "name": "Yale-NUS College Admissions"
   }, 
   "1": {
    "location": {
     "latitude": 41.31, 
     "longitude": -72.923611111111
    }, 
    "id": "108541499165950", 
    "name": "New Haven, Connecticut"
   }
  }
 }, 
 "10152645868680248": {
  "location": {
   "0": {
    "location": {
     "city": "Mystic", 
     "zip": "06355", 
     "country": "United States", 
     "longitude": -71.953264097181, 
     "state": "CT", 
     "latitude": 41.373410917558
    }, 
    "id": "187099324676060", 
    "name": "Mystic Seaport & Aquarium"
   }, 
   "1": {
    "location": {
     "city": "New York", 
     "zip": "10017-3823", 
     "country": "United States", 
     "longitude": -73.981394757146, 
     "state": "NY", 
     "street": "50 Vanderbilt Ave", 
     "latitude": 40.754845032317
    }, 
    "id": "120790267936584", 
    "name": "Yale Club of New York City"
   }
  }
 }, 
 "10205974130973657": {
  "location": {
   "0": {
    "location": {
     "latitude": 1.38148333333, 
     "city": "Pasir Ris", 
     "zip": "51", 
     "longitude": 103.9509, 
     "country": "Singapore"
    }, 
    "id": "142827132400805", 
    "name": "Pasir Ris Park"
   }
  }
 }, 
 "893785897311552": {
  "location": {
   "0": {
    "location": {
     "city": "Calcutta", 
     "zip": "700032", 
     "country": "India", 
     "longitude": 88.3678, 
     "street": "Jadavpur", 
     "latitude": 22.49281
    }, 
    "id": "141134689286150", 
    "name": "Jadavpur University"
   }
  }
 }, 
 "10155323453160183": {
  "location": {
   "0": {
    "location": {
     "city": "Singapore", 
     "zip": "esa informacion es clacificada", 
     "country": "Singapore", 
     "longitude": 103.83606552965, 
     "street": "2 Orchard Link", 
     "latitude": 1.3007442051088, 
     "located_in": "168911576531523"
    }, 
    "id": "133002123435912", 
    "name": "Scape Warehouse"
   }
  }
 }, 
 "10152994838941387": {
  "location": {
   "0": {
    "location": {
     "city": "Singapore", 
     "zip": "60", 
     "country": "Singapore", 
     "longitude": 103.7390463629, 
     "street": "1.3125,103.7444444", 
     "latitude": 1.3199466535782
    }, 
    "id": "189991624374145", 
    "name": "Pandan Reservoir"
   }, 
   "1": {
    "location": {
     "latitude": 34.566666666667, 
     "longitude": 135.76666666667
    }, 
    "id": "103758582996549", 
    "name": "Nara Prefecture, Japan"
   }, 
   "2": {
    "location": {
     "latitude": 34.566666666667, 
     "longitude": 135.76666666667
    }, 
    "id": "103758582996549", 
    "name": "Nara Prefecture, Japan"
   }, 
   "3": {
    "location": {
     "latitude": 35, 
     "longitude": 135.75, 
     "located_in": "149998798354892"
    }, 
    "id": "106514006053250", 
    "name": "Kyoto, Japan"
   }, 
   "4": {
    "location": {
     "latitude": 35, 
     "longitude": 135.75, 
     "located_in": "149998798354892"
    }, 
    "id": "106514006053250", 
    "name": "Kyoto, Japan"
   }, 
   "5": {
    "location": {
     "latitude": 35, 
     "longitude": 135.75, 
     "located_in": "149998798354892"
    }, 
    "id": "106514006053250", 
    "name": "Kyoto, Japan"
   }
  }
 }, 
 "902017936485337": {
  "location": {
   "0": {
    "location": {
     "city": "Kent Ridge", 
     "zip": "119279", 
     "country": "Singapore", 
     "longitude": 103.77217930799, 
     "street": "50 Kent Ridge Crescent, National University of Singapore", 
     "latitude": 1.3017797541883
    }, 
    "id": "107498635997871", 
    "name": "University Cultural Centre"
   }
  }
 }, 
 "126552884035483": {
  "location": {
   "0": {
    "location": {
     "city": "Singapore", 
     "zip": "57", 
     "country": "Singapore", 
     "longitude": 103.84312850858, 
     "latitude": 1.3469430076173, 
     "located_in": "187522364593684"
    }, 
    "id": "205046542850478", 
    "name": "RI (JC)"
   }, 
   "1": {
    "location": {
     "city": "Singapore", 
     "zip": "57", 
     "country": "Singapore", 
     "longitude": 103.84312850858, 
     "latitude": 1.3469430076173, 
     "located_in": "187522364593684"
    }, 
    "id": "205046542850478", 
    "name": "RI (JC)"
   }, 
   "2": {
    "location": {
     "city": "Singapore", 
     "zip": "57", 
     "country": "Singapore", 
     "longitude": 103.84312850858, 
     "latitude": 1.3469430076173, 
     "located_in": "187522364593684"
    }, 
    "id": "205046542850478", 
    "name": "RI (JC)"
   }, 
   "3": {
    "location": {
     "city": "Singapore", 
     "zip": "57", 
     "country": "Singapore", 
     "longitude": 103.84312850858, 
     "latitude": 1.3469430076173, 
     "located_in": "187522364593684"
    }, 
    "id": "205046542850478", 
    "name": "RI (JC)"
   }
  }
 }, 
 "10152732474180642": {
  "location": {
   "0": {
    "location": {
     "city": "Singapore", 
     "zip": "Singapore 138614", 
     "country": "Singapore", 
     "longitude": 103.77300819214, 
     "street": "6 College Avenue East, #B1-01", 
     "latitude": 1.3083388453214
    }, 
    "id": "237886262902734", 
    "name": "Yale-NUS College Admissions"
   }
  }
 }, 
 "10153186343081952": {
  "location": {
   "0": {
    "location": {
     "city": "Singapore", 
     "zip": "038981", 
     "country": "Singapore", 
     "longitude": 103.85570414539, 
     "street": "1 Esplanade Drive", 
     "latitude": 1.2894301765932
    }, 
    "id": "116177868444945", 
    "name": "Esplanade \u2013 Theatres On The Bay"
   }
  }
 }, 
 "10203188068536433": {
  "location": {
   "0": {
    "location": {
     "city": "New Delhi", 
     "zip": "700001", 
     "country": "India", 
     "longitude": 88.3740687129, 
     "latitude": 22.5807088892, 
     "located_in": "106517799384578"
    }, 
    "id": "152164611567581", 
    "name": "Kolkata North"
   }
  }
 }, 
 "10203805355563306": {
  "location": {
   "0": {
    "location": {
     "city": "Calcutta", 
     "zip": "700033", 
     "country": "India", 
     "longitude": 88.354139948432, 
     "street": "26, Prince Anwar Shah Road ", 
     "latitude": 22.502000247155
    }, 
    "id": "388168451271996", 
    "name": "Princeton Club"
   }
  }
 }, 
 "10205511555081593": {
  "location": {
   "0": {
    "location": {
     "city": "Kent Ridge", 
     "zip": "119279", 
     "country": "Singapore", 
     "longitude": 103.77217930799, 
     "street": "50 Kent Ridge Crescent, National University of Singapore", 
     "latitude": 1.3017797541883
    }, 
    "id": "107498635997871", 
    "name": "University Cultural Centre"
   }, 
   "1": {
    "location": {
     "latitude": 40.7142, 
     "longitude": -74.0064, 
     "located_in": "104048972965193"
    }, 
    "id": "108424279189115", 
    "name": "New York, New York"
   }, 
   "2": {
    "location": {
     "city": "Singapore", 
     "zip": "238868", 
     "country": "Singapore", 
     "longitude": 103.83174413786, 
     "street": "Singapore", 
     "latitude": 1.3049808735029
    }, 
    "id": "205236476178156", 
    "name": "Shaw Cinema Lido Orchard"
   }
  }
 }, 
 "10206406520381780": {
  "location": {
   "0": {
    "location": {
     "city": "Taipei", 
     "zip": "110", 
     "country": "Taiwan", 
     "longitude": 121.56478799751, 
     "street": "\u53f0\u5317\u5e02\u4fe1\u7fa9\u5340\u4fe1\u7fa9\u8def\u4e94\u6bb57\u865f85F", 
     "latitude": 25.033747614027
    }, 
    "id": "459687087387737", 
    "name": "Taipei 101 85\u6a13\u9ad8\u7a7a\u666f\u89c0\u9910\u5ef3-\u96a8\u610f\u9ce5\u5730\u65b9"
   }, 
   "1": {
    "location": {
     "city": "Taipei", 
     "zip": "110", 
     "country": "Taiwan", 
     "longitude": 121.56478799751, 
     "street": "\u53f0\u5317\u5e02\u4fe1\u7fa9\u5340\u4fe1\u7fa9\u8def\u4e94\u6bb57\u865f85F", 
     "latitude": 25.033747614027
    }, 
    "id": "459687087387737", 
    "name": "Taipei 101 85\u6a13\u9ad8\u7a7a\u666f\u89c0\u9910\u5ef3-\u96a8\u610f\u9ce5\u5730\u65b9"
   }, 
   "2": {
    "location": {
     "latitude": 41.31, 
     "longitude": -72.923611111111
    }, 
    "id": "108541499165950", 
    "name": "New Haven, Connecticut"
   }, 
   "3": {
    "location": {
     "city": "Singapore", 
     "zip": "238868", 
     "country": "Singapore", 
     "longitude": 103.83174413786, 
     "street": "Singapore", 
     "latitude": 1.3049808735029
    }, 
    "id": "205236476178156", 
    "name": "Shaw Cinema Lido Orchard"
   }, 
   "4": {
    "location": {
     "city": "Singapore", 
     "zip": "238868", 
     "country": "Singapore", 
     "longitude": 103.83174413786, 
     "street": "Singapore", 
     "latitude": 1.3049808735029
    }, 
    "id": "205236476178156", 
    "name": "Shaw Cinema Lido Orchard"
   }, 
   "5": {
    "location": {
     "city": "New York", 
     "zip": "10017", 
     "country": "United States", 
     "longitude": -73.967328457081, 
     "state": "NY", 
     "latitude": 40.751532576283
    }, 
    "id": "414763148578146", 
    "name": "United Nations NYC"
   }
  }
 }, 
 "867667886626211": {
  "location": {
   "0": {
    "location": {
     "city": "Singapore", 
     "zip": "238868", 
     "country": "Singapore", 
     "longitude": 103.83174413786, 
     "street": "Singapore", 
     "latitude": 1.3049808735029
    }, 
    "id": "205236476178156", 
    "name": "Shaw Cinema Lido Orchard"
   }
  }
 }, 
 "10153093762932319": {
  "location": {
   "0": {
    "location": {
     "city": "Singapore", 
     "zip": "Singapore 138614", 
     "country": "Singapore", 
     "longitude": 103.77300819214, 
     "street": "6 College Avenue East, #B1-01", 
     "latitude": 1.3083388453214
    }, 
    "id": "237886262902734", 
    "name": "Yale-NUS College Admissions"
   }
  }
 }, 
 "10206338030595409": {
  "location": {
   "0": {
    "location": {
     "latitude": 41.31, 
     "longitude": -72.923611111111
    }, 
    "id": "108541499165950", 
    "name": "New Haven, Connecticut"
   }
  }
 }, 
 "10152785622182339": {
  "location": {
   "0": {
    "location": {
     "city": "New York", 
     "zip": "10017", 
     "country": "United States", 
     "longitude": -73.967328457081, 
     "state": "NY", 
     "latitude": 40.751532576283
    }, 
    "id": "414763148578146", 
    "name": "United Nations NYC"
   }
  }
 }, 
 "10152872826373495": {
  "location": {
   "0": {
    "location": {
     "city": "New Delhi", 
     "zip": "700001", 
     "country": "India", 
     "longitude": 88.3740687129, 
     "latitude": 22.5807088892, 
     "located_in": "106517799384578"
    }, 
    "id": "152164611567581", 
    "name": "Kolkata North"
   }
  }
 }, 
 "10155353141375451": {
  "location": {
   "0": {
    "location": {
     "city": "Singapore", 
     "zip": "038981", 
     "country": "Singapore", 
     "longitude": 103.85570414539, 
     "street": "1 Esplanade Drive", 
     "latitude": 1.2894301765932
    }, 
    "id": "116177868444945", 
    "name": "Esplanade \u2013 Theatres On The Bay"
   }, 
   "1": {
    "location": {
     "city": "Singapore", 
     "zip": "Singapore 138614", 
     "country": "Singapore", 
     "longitude": 103.77300819214, 
     "street": "6 College Avenue East, #B1-01", 
     "latitude": 1.3083388453214
    }, 
    "id": "237886262902734", 
    "name": "Yale-NUS College Admissions"
   }
  }
 }, 
 "10153756170280620": {
  "location": {
   "0": {
    "location": {
     "city": "Singapore", 
     "zip": "esa informacion es clacificada", 
     "country": "Singapore", 
     "longitude": 103.83606552965, 
     "street": "2 Orchard Link", 
     "latitude": 1.3007442051088, 
     "located_in": "168911576531523"
    }, 
    "id": "133002123435912", 
    "name": "Scape Warehouse"
   }
  }
 }, 
 "927384990640291": {
  "location": {
   "0": {
    "location": {
     "city": "New Delhi", 
     "zip": "700001", 
     "country": "India", 
     "longitude": 88.3740687129, 
     "latitude": 22.5807088892, 
     "located_in": "106517799384578"
    }, 
    "id": "152164611567581", 
    "name": "Kolkata North"
   }
  }
 }, 
 "799646670082556": {
  "location": {
   "0": {
    "location": {
     "latitude": 34.566666666667, 
     "longitude": 135.76666666667
    }, 
    "id": "103758582996549", 
    "name": "Nara Prefecture, Japan"
   }, 
   "1": {
    "location": {
     "latitude": 35, 
     "longitude": 135.75, 
     "located_in": "149998798354892"
    }, 
    "id": "106514006053250", 
    "name": "Kyoto, Japan"
   }, 
   "2": {
    "location": {
     "latitude": 35, 
     "longitude": 135.75, 
     "located_in": "149998798354892"
    }, 
    "id": "106514006053250", 
    "name": "Kyoto, Japan"
   }, 
   "3": {
    "location": {
     "latitude": 35, 
     "longitude": 135.75, 
     "located_in": "149998798354892"
    }, 
    "id": "106514006053250", 
    "name": "Kyoto, Japan"
   }, 
   "4": {
    "location": {
     "latitude": 35, 
     "longitude": 135.75, 
     "located_in": "149998798354892"
    }, 
    "id": "106514006053250", 
    "name": "Kyoto, Japan"
   }
  }
 }, 
 "1550365565223688": {
  "location": {
   "0": {
    "location": {
     "city": "Singapore", 
     "zip": "60", 
     "country": "Singapore", 
     "longitude": 103.7390463629, 
     "street": "1.3125,103.7444444", 
     "latitude": 1.3199466535782
    }, 
    "id": "189991624374145", 
    "name": "Pandan Reservoir"
   }
  }
 }, 
 "10152899958459160": {
  "location": {
   "0": {
    "location": {
     "city": "Singapore", 
     "zip": "57", 
     "country": "Singapore", 
     "longitude": 103.84312850858, 
     "latitude": 1.3469430076173, 
     "located_in": "187522364593684"
    }, 
    "id": "205046542850478", 
    "name": "RI (JC)"
   }, 
   "1": {
    "location": {
     "city": "Singapore", 
     "zip": "57", 
     "country": "Singapore", 
     "longitude": 103.84312850858, 
     "latitude": 1.3469430076173, 
     "located_in": "187522364593684"
    }, 
    "id": "205046542850478", 
    "name": "RI (JC)"
   }
  }
 }, 
 "911744682221441": {
  "location": {
   "0": {
    "location": {
     "latitude": 34.566666666667, 
     "longitude": 135.76666666667
    }, 
    "id": "103758582996549", 
    "name": "Nara Prefecture, Japan"
   }, 
   "1": {
    "location": {
     "latitude": 35, 
     "longitude": 135.75, 
     "located_in": "149998798354892"
    }, 
    "id": "106514006053250", 
    "name": "Kyoto, Japan"
   }, 
   "2": {
    "location": {
     "latitude": 35, 
     "longitude": 135.75, 
     "located_in": "149998798354892"
    }, 
    "id": "106514006053250", 
    "name": "Kyoto, Japan"
   }, 
   "3": {
    "location": {
     "latitude": 35, 
     "longitude": 135.75, 
     "located_in": "149998798354892"
    }, 
    "id": "106514006053250", 
    "name": "Kyoto, Japan"
   }
  }
 }, 
 "10204385115372828": {
  "location": {
   "0": {
    "location": {
     "city": "Singapore", 
     "zip": "60", 
     "country": "Singapore", 
     "longitude": 103.7390463629, 
     "street": "1.3125,103.7444444", 
     "latitude": 1.3199466535782
    }, 
    "id": "189991624374145", 
    "name": "Pandan Reservoir"
   }, 
   "1": {
    "location": {
     "latitude": 1.38148333333, 
     "city": "Pasir Ris", 
     "zip": "51", 
     "longitude": 103.9509, 
     "country": "Singapore"
    }, 
    "id": "142827132400805", 
    "name": "Pasir Ris Park"
   }, 
   "2": {
    "location": {
     "latitude": 1.29306, 
     "longitude": 103.856, 
     "located_in": "240852582604992"
    }, 
    "id": "105565836144069", 
    "name": "Singapore"
   }
  }
 }, 
 "1026342634060735": {
  "location": {
   "0": {
    "location": {
     "city": "Singapore", 
     "zip": "238868", 
     "country": "Singapore", 
     "longitude": 103.83174413786, 
     "street": "Singapore", 
     "latitude": 1.3049808735029
    }, 
    "id": "205236476178156", 
    "name": "Shaw Cinema Lido Orchard"
   }, 
   "1": {
    "location": {
     "city": "Singapore", 
     "zip": "238868", 
     "country": "Singapore", 
     "longitude": 103.83174413786, 
     "street": "Singapore", 
     "latitude": 1.3049808735029
    }, 
    "id": "205236476178156", 
    "name": "Shaw Cinema Lido Orchard"
   }, 
   "2": {
    "location": {
     "city": "New York", 
     "zip": "10017", 
     "country": "United States", 
     "longitude": -73.967328457081, 
     "state": "NY", 
     "latitude": 40.751532576283
    }, 
    "id": "414763148578146", 
    "name": "United Nations NYC"
   }
  }
 }, 
 "10206054580224740": {
  "location": {
   "0": {
    "location": {
     "latitude": 1.3025150002815, 
     "city": "Singapore", 
     "longitude": 103.87661539041, 
     "country": "Singapore"
    }, 
    "id": "137858336279207", 
    "name": "Kallang Bowl @ Kallang Leisure Park"
   }
  }
 }, 
 "10205511690524979": {
  "location": {
   "0": {
    "location": {
     "city": "Singapore", 
     "zip": "57", 
     "country": "Singapore", 
     "longitude": 103.84312850858, 
     "latitude": 1.3469430076173, 
     "located_in": "187522364593684"
    }, 
    "id": "205046542850478", 
    "name": "RI (JC)"
   }, 
   "1": {
    "location": {
     "city": "Singapore", 
     "zip": "57", 
     "country": "Singapore", 
     "longitude": 103.84312850858, 
     "latitude": 1.3469430076173, 
     "located_in": "187522364593684"
    }, 
    "id": "205046542850478", 
    "name": "RI (JC)"
   }, 
   "2": {
    "location": {
     "city": "Singapore", 
     "zip": "57", 
     "country": "Singapore", 
     "longitude": 103.84312850858, 
     "latitude": 1.3469430076173, 
     "located_in": "187522364593684"
    }, 
    "id": "205046542850478", 
    "name": "RI (JC)"
   }
  }
 }, 
 "10153209695788993": {
  "location": {
   "0": {
    "location": {
     "city": "Singapore", 
     "zip": "esa informacion es clacificada", 
     "country": "Singapore", 
     "longitude": 103.83606552965, 
     "street": "2 Orchard Link", 
     "latitude": 1.3007442051088, 
     "located_in": "168911576531523"
    }, 
    "id": "133002123435912", 
    "name": "Scape Warehouse"
   }
  }
 }, 
 "10206589035830485": {
  "location": {
   "0": {
    "location": {
     "city": "New Delhi", 
     "zip": "700001", 
     "country": "India", 
     "longitude": 88.3740687129, 
     "latitude": 22.5807088892, 
     "located_in": "106517799384578"
    }, 
    "id": "152164611567581", 
    "name": "Kolkata North"
   }
  }
 }, 
 "10205266113564269": {
  "location": {
   "0": {
    "location": {
     "latitude": 1.38148333333, 
     "city": "Pasir Ris", 
     "zip": "51", 
     "longitude": 103.9509, 
     "country": "Singapore"
    }, 
    "id": "142827132400805", 
    "name": "Pasir Ris Park"
   }
  }
 }, 
 "10203269787094681": {
  "location": {
   "0": {
    "location": {
     "city": "Singapore", 
     "zip": "57", 
     "country": "Singapore", 
     "longitude": 103.84312850858, 
     "latitude": 1.3469430076173, 
     "located_in": "187522364593684"
    }, 
    "id": "205046542850478", 
    "name": "RI (JC)"
   }, 
   "1": {
    "location": {
     "city": "Singapore", 
     "zip": "57", 
     "country": "Singapore", 
     "longitude": 103.84312850858, 
     "latitude": 1.3469430076173, 
     "located_in": "187522364593684"
    }, 
    "id": "205046542850478", 
    "name": "RI (JC)"
   }
  }
 }, 
 "10206343315807657": {
  "location": {
   "0": {
    "location": {
     "latitude": 1.32159865816, 
     "city": "Singapore", 
     "longitude": 103.858387794, 
     "country": "Singapore"
    }, 
    "id": "279424168838364", 
    "name": "NUS University Cultural Centre"
   }
  }
 }, 
 "10152907263989475": {
  "location": {
   "0": {
    "location": {
     "city": "Singapore", 
     "zip": "esa informacion es clacificada", 
     "country": "Singapore", 
     "longitude": 103.83606552965, 
     "street": "2 Orchard Link", 
     "latitude": 1.3007442051088, 
     "located_in": "168911576531523"
    }, 
    "id": "133002123435912", 
    "name": "Scape Warehouse"
   }
  }
 }, 
 "10155306778250557": {
  "location": {
   "0": {
    "location": {
     "city": "Singapore", 
     "zip": "esa informacion es clacificada", 
     "country": "Singapore", 
     "longitude": 103.83606552965, 
     "street": "2 Orchard Link", 
     "latitude": 1.3007442051088, 
     "located_in": "168911576531523"
    }, 
    "id": "133002123435912", 
    "name": "Scape Warehouse"
   }
  }
 }, 
 "10203962414847661": {
  "location": {
   "0": {
    "location": {
     "latitude": 1.4078810143117, 
     "city": "Singapore", 
     "longitude": 103.74763040405, 
     "country": "Singapore"
    }, 
    "id": "135724386504363", 
    "name": "Novena"
   }
  }
 }, 
 "10153226445343436": {
  "location": {
   "0": {
    "location": {
     "latitude": 1.3025150002815, 
     "city": "Singapore", 
     "longitude": 103.87661539041, 
     "country": "Singapore"
    }, 
    "id": "137858336279207", 
    "name": "Kallang Bowl @ Kallang Leisure Park"
   }, 
   "1": {
    "location": {
     "city": "Kallang", 
     "zip": "397693", 
     "country": "Singapore", 
     "longitude": 103.87662945522, 
     "street": "5 Stadium Walk", 
     "latitude": 1.3024890725972
    }, 
    "id": "168301239869584", 
    "name": "Leisure Park Kallang"
   }, 
   "2": {
    "location": {
     "city": "Singapore", 
     "country": "Singapore", 
     "longitude": 103.84963430846, 
     "street": "Waterloo Street", 
     "latitude": 1.2986730187541, 
     "located_in": "192018340809091"
    }, 
    "id": "158576354291105", 
    "name": "Sentosa Island"
   }
  }
 }, 
 "865427356852457": {
  "location": {
   "0": {
    "location": {
     "city": "New Delhi", 
     "zip": "700001", 
     "country": "India", 
     "longitude": 88.3740687129, 
     "latitude": 22.5807088892, 
     "located_in": "106517799384578"
    }, 
    "id": "152164611567581", 
    "name": "Kolkata North"
   }
  }
 }, 
 "10153199004633707": {
  "location": {
   "0": {
    "location": {
     "city": "Singapore", 
     "zip": "60", 
     "country": "Singapore", 
     "longitude": 103.7390463629, 
     "street": "1.3125,103.7444444", 
     "latitude": 1.3199466535782
    }, 
    "id": "189991624374145", 
    "name": "Pandan Reservoir"
   }, 
   "1": {
    "location": {
     "latitude": 41.31, 
     "longitude": -72.923611111111
    }, 
    "id": "108541499165950", 
    "name": "New Haven, Connecticut"
   }, 
   "2": {
    "location": {
     "city": "New Haven", 
     "zip": "06511", 
     "country": "United States", 
     "longitude": -72.92861155789, 
     "state": "CT", 
     "latitude": 41.309985165387
    }, 
    "id": "374809010319", 
    "name": "Yale University"
   }, 
   "3": {
    "location": {
     "city": "Mystic", 
     "zip": "06355", 
     "country": "United States", 
     "longitude": -71.953264097181, 
     "state": "CT", 
     "latitude": 41.373410917558
    }, 
    "id": "187099324676060", 
    "name": "Mystic Seaport & Aquarium"
   }, 
   "4": {
    "location": {
     "city": "New York", 
     "zip": "10017", 
     "country": "United States", 
     "longitude": -73.967328457081, 
     "state": "NY", 
     "latitude": 40.751532576283
    }, 
    "id": "414763148578146", 
    "name": "United Nations NYC"
   }
  }
 }, 
 "940880952590245": {
  "location": {
   "0": {
    "location": {
     "city": "New Delhi", 
     "zip": "700001", 
     "country": "India", 
     "longitude": 88.3740687129, 
     "latitude": 22.5807088892, 
     "located_in": "106517799384578"
    }, 
    "id": "152164611567581", 
    "name": "Kolkata North"
   }
  }
 }, 
 "10153039250623046": {
  "location": {
   "0": {
    "location": {
     "latitude": 1.38148333333, 
     "city": "Pasir Ris", 
     "zip": "51", 
     "longitude": 103.9509, 
     "country": "Singapore"
    }, 
    "id": "142827132400805", 
    "name": "Pasir Ris Park"
   }
  }
 }, 
 "10153150160132241": {
  "location": {
   "0": {
    "location": {
     "latitude": 1.38148333333, 
     "city": "Pasir Ris", 
     "zip": "51", 
     "longitude": 103.9509, 
     "country": "Singapore"
    }, 
    "id": "142827132400805", 
    "name": "Pasir Ris Park"
   }
  }
 }, 
 "10153656653383098": {
  "location": {
   "0": {
    "location": {
     "city": "Singapore", 
     "zip": "238868", 
     "country": "Singapore", 
     "longitude": 103.83174413786, 
     "street": "Singapore", 
     "latitude": 1.3049808735029
    }, 
    "id": "205236476178156", 
    "name": "Shaw Cinema Lido Orchard"
   }
  }
 }, 
 "1029231567106261": {
  "location": {
   "0": {
    "location": {
     "city": "Singapore", 
     "zip": "60", 
     "country": "Singapore", 
     "longitude": 103.7390463629, 
     "street": "1.3125,103.7444444", 
     "latitude": 1.3199466535782
    }, 
    "id": "189991624374145", 
    "name": "Pandan Reservoir"
   }
  }
 }, 
 "10152772575805922": {
  "location": {
   "0": {
    "location": {
     "city": "Singapore", 
     "zip": "038981", 
     "country": "Singapore", 
     "longitude": 103.85570414539, 
     "street": "1 Esplanade Drive", 
     "latitude": 1.2894301765932
    }, 
    "id": "116177868444945", 
    "name": "Esplanade \u2013 Theatres On The Bay"
   }, 
   "1": {
    "location": {
     "city": "New York", 
     "zip": "10017-3823", 
     "country": "United States", 
     "longitude": -73.981394757146, 
     "state": "NY", 
     "street": "50 Vanderbilt Ave", 
     "latitude": 40.754845032317
    }, 
    "id": "120790267936584", 
    "name": "Yale Club of New York City"
   }, 
   "2": {
    "location": {
     "city": "New Haven", 
     "zip": "06511", 
     "country": "United States", 
     "longitude": -72.92861155789, 
     "state": "CT", 
     "latitude": 41.309985165387
    }, 
    "id": "374809010319", 
    "name": "Yale University"
   }
  }
 }, 
 "10152763570375665": {
  "location": {
   "0": {
    "location": {
     "city": "New York", 
     "zip": "10017-3823", 
     "country": "United States", 
     "longitude": -73.981394757146, 
     "state": "NY", 
     "street": "50 Vanderbilt Ave", 
     "latitude": 40.754845032317
    }, 
    "id": "120790267936584", 
    "name": "Yale Club of New York City"
   }
  }
 }, 
 "867132999995559": {
  "location": {
   "0": {
    "location": {
     "city": "New Delhi", 
     "zip": "700001", 
     "country": "India", 
     "longitude": 88.3740687129, 
     "latitude": 22.5807088892, 
     "located_in": "106517799384578"
    }, 
    "id": "152164611567581", 
    "name": "Kolkata North"
   }
  }
 }, 
 "10152827638456909": {
  "location": {
   "0": {
    "location": {
     "city": "Kent Ridge", 
     "zip": "119279", 
     "country": "Singapore", 
     "longitude": 103.77217930799, 
     "street": "50 Kent Ridge Crescent, National University of Singapore", 
     "latitude": 1.3017797541883
    }, 
    "id": "107498635997871", 
    "name": "University Cultural Centre"
   }
  }
 }, 
 "10205096263420531": {
  "location": {
   "0": {
    "location": {
     "city": "Singapore", 
     "zip": "esa informacion es clacificada", 
     "country": "Singapore", 
     "longitude": 103.83606552965, 
     "street": "2 Orchard Link", 
     "latitude": 1.3007442051088, 
     "located_in": "168911576531523"
    }, 
    "id": "133002123435912", 
    "name": "Scape Warehouse"
   }
  }
 }, 
 "10155288737200524": {
  "location": {
   "0": {
    "location": {
     "city": "Kent Ridge", 
     "zip": "119279", 
     "country": "Singapore", 
     "longitude": 103.77217930799, 
     "street": "50 Kent Ridge Crescent, National University of Singapore", 
     "latitude": 1.3017797541883
    }, 
    "id": "107498635997871", 
    "name": "University Cultural Centre"
   }, 
   "1": {
    "location": {
     "latitude": 40.7142, 
     "longitude": -74.0064, 
     "located_in": "104048972965193"
    }, 
    "id": "108424279189115", 
    "name": "New York, New York"
   }, 
   "2": {
    "location": {
     "city": "Singapore", 
     "zip": "Singapore 138614", 
     "country": "Singapore", 
     "longitude": 103.77300819214, 
     "street": "6 College Avenue East, #B1-01", 
     "latitude": 1.3083388453214
    }, 
    "id": "237886262902734", 
    "name": "Yale-NUS College Admissions"
   }
  }
 }, 
 "10155334320965228": {
  "location": {
   "0": {
    "location": {
     "latitude": 35, 
     "longitude": 135.75, 
     "located_in": "149998798354892"
    }, 
    "id": "106514006053250", 
    "name": "Kyoto, Japan"
   }, 
   "1": {
    "location": {
     "latitude": 34.566666666667, 
     "longitude": 135.76666666667
    }, 
    "id": "103758582996549", 
    "name": "Nara Prefecture, Japan"
   }, 
   "2": {
    "location": {
     "latitude": 34.566666666667, 
     "longitude": 135.76666666667
    }, 
    "id": "103758582996549", 
    "name": "Nara Prefecture, Japan"
   }, 
   "3": {
    "location": {
     "latitude": 35, 
     "longitude": 135.75, 
     "located_in": "149998798354892"
    }, 
    "id": "106514006053250", 
    "name": "Kyoto, Japan"
   }, 
   "4": {
    "location": {
     "latitude": 35, 
     "longitude": 135.75, 
     "located_in": "149998798354892"
    }, 
    "id": "106514006053250", 
    "name": "Kyoto, Japan"
   }, 
   "5": {
    "location": {
     "latitude": 35, 
     "longitude": 135.75, 
     "located_in": "149998798354892"
    }, 
    "id": "106514006053250", 
    "name": "Kyoto, Japan"
   }
  }
 }, 
 "10202644698238637": {
  "location": {
   "0": {
    "location": {
     "city": "New Delhi", 
     "zip": "700001", 
     "country": "India", 
     "longitude": 88.3740687129, 
     "latitude": 22.5807088892, 
     "located_in": "106517799384578"
    }, 
    "id": "152164611567581", 
    "name": "Kolkata North"
   }
  }
 }, 
 "10152801653380028": {
  "location": {
   "0": {
    "location": {
     "city": "Singapore", 
     "zip": "57", 
     "country": "Singapore", 
     "longitude": 103.84312850858, 
     "latitude": 1.3469430076173, 
     "located_in": "187522364593684"
    }, 
    "id": "205046542850478", 
    "name": "RI (JC)"
   }, 
   "1": {
    "location": {
     "city": "Singapore", 
     "zip": "57", 
     "country": "Singapore", 
     "longitude": 103.84312850858, 
     "latitude": 1.3469430076173, 
     "located_in": "187522364593684"
    }, 
    "id": "205046542850478", 
    "name": "RI (JC)"
   }
  }
 }, 
 "10206204569459351": {
  "location": {
   "0": {
    "location": {
     "city": "Taipei", 
     "zip": "110", 
     "country": "Taiwan", 
     "longitude": 121.56478799751, 
     "street": "\u53f0\u5317\u5e02\u4fe1\u7fa9\u5340\u4fe1\u7fa9\u8def\u4e94\u6bb57\u865f85F", 
     "latitude": 25.033747614027
    }, 
    "id": "459687087387737", 
    "name": "Taipei 101 85\u6a13\u9ad8\u7a7a\u666f\u89c0\u9910\u5ef3-\u96a8\u610f\u9ce5\u5730\u65b9"
   }, 
   "1": {
    "location": {
     "city": "Taipei", 
     "zip": "110", 
     "country": "Taiwan", 
     "longitude": 121.56478799751, 
     "street": "\u53f0\u5317\u5e02\u4fe1\u7fa9\u5340\u4fe1\u7fa9\u8def\u4e94\u6bb57\u865f85F", 
     "latitude": 25.033747614027
    }, 
    "id": "459687087387737", 
    "name": "Taipei 101 85\u6a13\u9ad8\u7a7a\u666f\u89c0\u9910\u5ef3-\u96a8\u610f\u9ce5\u5730\u65b9"
   }, 
   "2": {
    "location": {
     "city": "Singapore", 
     "zip": "138614", 
     "country": "Singapore", 
     "longitude": 103.77312591916, 
     "street": "6 College Avenue East", 
     "latitude": 1.3083768512884
    }, 
    "id": "683119715051284", 
    "name": "Yale-NUS College"
   }
  }
 }, 
 "10153674067871111": {
  "location": {
   "0": {
    "location": {
     "latitude": 41.31, 
     "longitude": -72.923611111111
    }, 
    "id": "108541499165950", 
    "name": "New Haven, Connecticut"
   }
  }
 }, 
 "10152850808263661": {
  "location": {
   "0": {
    "location": {
     "city": "Singapore", 
     "zip": "57", 
     "country": "Singapore", 
     "longitude": 103.84312850858, 
     "latitude": 1.3469430076173, 
     "located_in": "187522364593684"
    }, 
    "id": "205046542850478", 
    "name": "RI (JC)"
   }
  }
 }, 
 "10152774583967817": {
  "location": {
   "0": {
    "location": {
     "city": "Singapore", 
     "zip": "esa informacion es clacificada", 
     "country": "Singapore", 
     "longitude": 103.83606552965, 
     "street": "2 Orchard Link", 
     "latitude": 1.3007442051088, 
     "located_in": "168911576531523"
    }, 
    "id": "133002123435912", 
    "name": "Scape Warehouse"
   }
  }
 }, 
 "10152960490047819": {
  "location": {
   "0": {
    "location": {
     "latitude": 41.3611, 
     "longitude": -71.9669
    }, 
    "id": "112832862061865", 
    "name": "Mystic Seaport, Connecticut"
   }, 
   "1": {
    "location": {
     "latitude": 41.31, 
     "longitude": -72.923611111111
    }, 
    "id": "108541499165950", 
    "name": "New Haven, Connecticut"
   }
  }
 }, 
 "10206503283723605": {
  "location": {
   "0": {
    "location": {
     "city": "Calcutta", 
     "zip": "700032", 
     "country": "India", 
     "longitude": 88.3678, 
     "street": "Jadavpur", 
     "latitude": 22.49281
    }, 
    "id": "141134689286150", 
    "name": "Jadavpur University"
   }
  }
 }, 
 "10205007714734295": {
  "location": {
   "0": {
    "location": {
     "city": "Kallang", 
     "zip": "397693", 
     "country": "Singapore", 
     "longitude": 103.87662945522, 
     "street": "5 Stadium Walk", 
     "latitude": 1.3024890725972
    }, 
    "id": "168301239869584", 
    "name": "Leisure Park Kallang"
   }
  }
 }, 
 "10153237957552147": {
  "location": {
   "0": {
    "location": {
     "city": "Singapore", 
     "zip": "138614", 
     "country": "Singapore", 
     "longitude": 103.77312591916, 
     "street": "6 College Avenue East", 
     "latitude": 1.3083768512884
    }, 
    "id": "683119715051284", 
    "name": "Yale-NUS College"
   }, 
   "1": {
    "location": {
     "city": "Singapore", 
     "zip": "Singapore 138614", 
     "country": "Singapore", 
     "longitude": 103.77300819214, 
     "street": "6 College Avenue East, #B1-01", 
     "latitude": 1.3083388453214
    }, 
    "id": "237886262902734", 
    "name": "Yale-NUS College Admissions"
   }, 
   "2": {
    "id": "54779960819", 
    "name": "United Nations"
   }, 
   "3": {
    "location": {
     "city": "Agawam", 
     "zip": "01001", 
     "country": "United States", 
     "longitude": -72.615667102052, 
     "state": "MA", 
     "latitude": 42.037672020075
    }, 
    "id": "52129033739", 
    "name": "Six Flags New England"
   }, 
   "4": {
    "location": {
     "city": "Agawam", 
     "zip": "01001", 
     "country": "United States", 
     "longitude": -72.615667102052, 
     "state": "MA", 
     "latitude": 42.037672020075
    }, 
    "id": "52129033739", 
    "name": "Six Flags New England"
   }, 
   "5": {
    "location": {
     "city": "Agawam", 
     "zip": "01001", 
     "country": "United States", 
     "longitude": -72.615667102052, 
     "state": "MA", 
     "latitude": 42.037672020075
    }, 
    "id": "52129033739", 
    "name": "Six Flags New England"
   }, 
   "6": {
    "location": {
     "latitude": 41.31, 
     "longitude": -72.923611111111
    }, 
    "id": "108541499165950", 
    "name": "New Haven, Connecticut"
   }
  }
 }, 
 "741802995933815": {
  "location": {
   "0": {
    "location": {
     "latitude": 34.566666666667, 
     "longitude": 135.76666666667
    }, 
    "id": "103758582996549", 
    "name": "Nara Prefecture, Japan"
   }, 
   "1": {
    "location": {
     "latitude": 35, 
     "longitude": 135.75, 
     "located_in": "149998798354892"
    }, 
    "id": "106514006053250", 
    "name": "Kyoto, Japan"
   }, 
   "2": {
    "location": {
     "latitude": 35, 
     "longitude": 135.75, 
     "located_in": "149998798354892"
    }, 
    "id": "106514006053250", 
    "name": "Kyoto, Japan"
   }, 
   "3": {
    "location": {
     "city": "Singapore", 
     "zip": "238868", 
     "country": "Singapore", 
     "longitude": 103.83174413786, 
     "street": "Singapore", 
     "latitude": 1.3049808735029
    }, 
    "id": "205236476178156", 
    "name": "Shaw Cinema Lido Orchard"
   }, 
   "4": {
    "location": {
     "city": "New York", 
     "zip": "10017", 
     "country": "United States", 
     "longitude": -73.967328457081, 
     "state": "NY", 
     "latitude": 40.751532576283
    }, 
    "id": "414763148578146", 
    "name": "United Nations NYC"
   }
  }
 }, 
 "969663666399405": {
  "location": {
   "0": {
    "location": {
     "city": "Singapore", 
     "zip": "Singapore 138614", 
     "country": "Singapore", 
     "longitude": 103.77300819214, 
     "street": "6 College Avenue East, #B1-01", 
     "latitude": 1.3083388453214
    }, 
    "id": "237886262902734", 
    "name": "Yale-NUS College Admissions"
   }
  }
 }, 
 "10206298850498971": {
  "location": {
   "0": {
    "location": {
     "city": "Singapore", 
     "zip": "038981", 
     "country": "Singapore", 
     "longitude": 103.85570414539, 
     "street": "1 Esplanade Drive", 
     "latitude": 1.2894301765932
    }, 
    "id": "116177868444945", 
    "name": "Esplanade \u2013 Theatres On The Bay"
   }, 
   "1": {
    "location": {
     "city": "New Haven", 
     "zip": "06511", 
     "country": "United States", 
     "longitude": -72.92861155789, 
     "state": "CT", 
     "latitude": 41.309985165387
    }, 
    "id": "374809010319", 
    "name": "Yale University"
   }, 
   "2": {
    "location": {
     "city": "New Haven", 
     "zip": "06511", 
     "country": "United States", 
     "longitude": -72.92861155789, 
     "state": "CT", 
     "latitude": 41.309985165387
    }, 
    "id": "374809010319", 
    "name": "Yale University"
   }
  }
 }, 
 "10204804259278616": {
  "location": {
   "0": {
    "location": {
     "city": "Calcutta", 
     "zip": "700054", 
     "country": "India", 
     "longitude": 88.400796451252, 
     "street": "164/1 Maniktala Main Road, 9th Floor [Beside Apollo Gleaneagles Hospital EM Bypass", 
     "latitude": 22.577807488535
    }, 
    "id": "211106118905826", 
    "name": "Mani Square Mall"
   }
  }
 }, 
 "10102208517874275": {
  "location": {
   "0": {
    "location": {
     "city": "Singapore", 
     "zip": "esa informacion es clacificada", 
     "country": "Singapore", 
     "longitude": 103.83606552965, 
     "street": "2 Orchard Link", 
     "latitude": 1.3007442051088, 
     "located_in": "168911576531523"
    }, 
    "id": "133002123435912", 
    "name": "Scape Warehouse"
   }
  }
 }, 
 "816840421703459": {
  "location": {
   "0": {
    "location": {
     "latitude": 41.31, 
     "longitude": -72.923611111111
    }, 
    "id": "108541499165950", 
    "name": "New Haven, Connecticut"
   }
  }
 }, 
 "10152691052475286": {
  "location": {
   "0": {
    "location": {
     "city": "Singapore", 
     "zip": "237978", 
     "country": "Singapore", 
     "longitude": 103.83612196635, 
     "street": "2 Orchard Link", 
     "latitude": 1.3008029306419
    }, 
    "id": "168911576531523", 
    "name": "SCAPE"
   }, 
   "1": {
    "location": {
     "city": "Singapore", 
     "zip": "237978", 
     "country": "Singapore", 
     "longitude": 103.83612196635, 
     "street": "2 Orchard Link", 
     "latitude": 1.3008029306419
    }, 
    "id": "168911576531523", 
    "name": "SCAPE"
   }, 
   "2": {
    "location": {
     "city": "Singapore", 
     "zip": "esa informacion es clacificada", 
     "country": "Singapore", 
     "longitude": 103.83606552965, 
     "street": "2 Orchard Link", 
     "latitude": 1.3007442051088, 
     "located_in": "168911576531523"
    }, 
    "id": "133002123435912", 
    "name": "Scape Warehouse"
   }, 
   "3": {
    "location": {
     "city": "Singapore", 
     "zip": "esa informacion es clacificada", 
     "country": "Singapore", 
     "longitude": 103.83606552965, 
     "street": "2 Orchard Link", 
     "latitude": 1.3007442051088, 
     "located_in": "168911576531523"
    }, 
    "id": "133002123435912", 
    "name": "Scape Warehouse"
   }, 
   "4": {
    "location": {
     "city": "Singapore", 
     "zip": "esa informacion es clacificada", 
     "country": "Singapore", 
     "longitude": 103.83606552965, 
     "street": "2 Orchard Link", 
     "latitude": 1.3007442051088, 
     "located_in": "168911576531523"
    }, 
    "id": "133002123435912", 
    "name": "Scape Warehouse"
   }, 
   "5": {
    "location": {
     "city": "Singapore", 
     "zip": "esa informacion es clacificada", 
     "country": "Singapore", 
     "longitude": 103.83606552965, 
     "street": "2 Orchard Link", 
     "latitude": 1.3007442051088, 
     "located_in": "168911576531523"
    }, 
    "id": "133002123435912", 
    "name": "Scape Warehouse"
   }, 
   "6": {
    "location": {
     "city": "Singapore", 
     "zip": "237978", 
     "country": "Singapore", 
     "longitude": 103.83612196635, 
     "street": "2 Orchard Link", 
     "latitude": 1.3008029306419
    }, 
    "id": "168911576531523", 
    "name": "SCAPE"
   }, 
   "7": {
    "location": {
     "city": "Singapore", 
     "zip": "237978", 
     "country": "Singapore", 
     "longitude": 103.83612196635, 
     "street": "2 Orchard Link", 
     "latitude": 1.3008029306419
    }, 
    "id": "168911576531523", 
    "name": "SCAPE"
   }, 
   "8": {
    "location": {
     "city": "Singapore", 
     "zip": "237978", 
     "country": "Singapore", 
     "longitude": 103.83612196635, 
     "street": "2 Orchard Link", 
     "latitude": 1.3008029306419
    }, 
    "id": "168911576531523", 
    "name": "SCAPE"
   }, 
   "9": {
    "location": {
     "city": "Singapore", 
     "zip": "238868", 
     "country": "Singapore", 
     "longitude": 103.83174413786, 
     "street": "Singapore", 
     "latitude": 1.3049808735029
    }, 
    "id": "205236476178156", 
    "name": "Shaw Cinema Lido Orchard"
   }
  }
 }, 
 "10152872676532690": {
  "location": {
   "0": {
    "location": {
     "city": "New York", 
     "zip": "10017", 
     "country": "United States", 
     "longitude": -73.967328457081, 
     "state": "NY", 
     "latitude": 40.751532576283
    }, 
    "id": "414763148578146", 
    "name": "United Nations NYC"
   }, 
   "1": {
    "location": {
     "city": "Agawam", 
     "zip": "01001", 
     "country": "United States", 
     "longitude": -72.615667102052, 
     "state": "MA", 
     "latitude": 42.037672020075
    }, 
    "id": "52129033739", 
    "name": "Six Flags New England"
   }
  }
 }, 
 "10152856306554541": {
  "location": {
   "0": {
    "location": {
     "city": "Kent Ridge", 
     "zip": "119279", 
     "country": "Singapore", 
     "longitude": 103.77217930799, 
     "street": "50 Kent Ridge Crescent, National University of Singapore", 
     "latitude": 1.3017797541883
    }, 
    "id": "107498635997871", 
    "name": "University Cultural Centre"
   }
  }
 }, 
 "791425944239728": {
  "location": {
   "0": {
    "location": {
     "city": "Singapore", 
     "zip": "60", 
     "country": "Singapore", 
     "longitude": 103.7390463629, 
     "street": "1.3125,103.7444444", 
     "latitude": 1.3199466535782
    }, 
    "id": "189991624374145", 
    "name": "Pandan Reservoir"
   }, 
   "1": {
    "location": {
     "city": "Mystic", 
     "zip": "06355", 
     "country": "United States", 
     "longitude": -71.953264097181, 
     "state": "CT", 
     "latitude": 41.373410917558
    }, 
    "id": "187099324676060", 
    "name": "Mystic Seaport & Aquarium"
   }
  }
 }, 
 "879840365372646": {
  "location": {
   "0": {
    "location": {
     "city": "Singapore", 
     "zip": "238868", 
     "country": "Singapore", 
     "longitude": 103.83174413786, 
     "street": "Singapore", 
     "latitude": 1.3049808735029
    }, 
    "id": "205236476178156", 
    "name": "Shaw Cinema Lido Orchard"
   }
  }
 }, 
 "10205233762779748": {
  "location": {
   "0": {
    "location": {
     "latitude": 1.3025150002815, 
     "city": "Singapore", 
     "longitude": 103.87661539041, 
     "country": "Singapore"
    }, 
    "id": "137858336279207", 
    "name": "Kallang Bowl @ Kallang Leisure Park"
   }
  }
 }, 
 "10153092876032394": {
  "location": {
   "0": {
    "location": {
     "city": "Singapore", 
     "zip": "esa informacion es clacificada", 
     "country": "Singapore", 
     "longitude": 103.83606552965, 
     "street": "2 Orchard Link", 
     "latitude": 1.3007442051088, 
     "located_in": "168911576531523"
    }, 
    "id": "133002123435912", 
    "name": "Scape Warehouse"
   }
  }
 }, 
 "635356843262635": {
  "location": {
   "0": {
    "location": {
     "latitude": 1.29306, 
     "longitude": 103.856, 
     "located_in": "240852582604992"
    }, 
    "id": "105565836144069", 
    "name": "Singapore"
   }
  }
 }, 
 "10206171513350534": {
  "location": {
   "0": {
    "location": {
     "city": "Calcutta", 
     "zip": "700032", 
     "country": "India", 
     "longitude": 88.3678, 
     "street": "Jadavpur", 
     "latitude": 22.49281
    }, 
    "id": "141134689286150", 
    "name": "Jadavpur University"
   }
  }
 }, 
 "10152595450341256": {
  "location": {
   "0": {
    "location": {
     "city": "Singapore", 
     "zip": "Singapore 138614", 
     "country": "Singapore", 
     "longitude": 103.77300819214, 
     "street": "6 College Avenue East, #B1-01", 
     "latitude": 1.3083388453214
    }, 
    "id": "237886262902734", 
    "name": "Yale-NUS College Admissions"
   }
  }
 }, 
 "10153225001942125": {
  "location": {
   "0": {
    "location": {
     "city": "Singapore", 
     "zip": "57", 
     "country": "Singapore", 
     "longitude": 103.84312850858, 
     "latitude": 1.3469430076173, 
     "located_in": "187522364593684"
    }, 
    "id": "205046542850478", 
    "name": "RI (JC)"
   }, 
   "1": {
    "location": {
     "city": "Singapore", 
     "zip": "57", 
     "country": "Singapore", 
     "longitude": 103.84312850858, 
     "latitude": 1.3469430076173, 
     "located_in": "187522364593684"
    }, 
    "id": "205046542850478", 
    "name": "RI (JC)"
   }, 
   "2": {
    "location": {
     "city": "Singapore", 
     "zip": "57", 
     "country": "Singapore", 
     "longitude": 103.84312850858, 
     "latitude": 1.3469430076173, 
     "located_in": "187522364593684"
    }, 
    "id": "205046542850478", 
    "name": "RI (JC)"
   }
  }
 }, 
 "10205106640758581": {
  "location": {
   "0": {
    "location": {
     "city": "Singapore", 
     "zip": "57", 
     "country": "Singapore", 
     "longitude": 103.84312850858, 
     "latitude": 1.3469430076173, 
     "located_in": "187522364593684"
    }, 
    "id": "205046542850478", 
    "name": "RI (JC)"
   }, 
   "1": {
    "location": {
     "city": "Singapore", 
     "zip": "57", 
     "country": "Singapore", 
     "longitude": 103.84312850858, 
     "latitude": 1.3469430076173, 
     "located_in": "187522364593684"
    }, 
    "id": "205046542850478", 
    "name": "RI (JC)"
   }
  }
 }, 
 "10155352903055204": {
  "location": {
   "0": {
    "location": {
     "latitude": 1.38148333333, 
     "city": "Pasir Ris", 
     "zip": "51", 
     "longitude": 103.9509, 
     "country": "Singapore"
    }, 
    "id": "142827132400805", 
    "name": "Pasir Ris Park"
   }
  }
 }, 
 "10152748047281608": {
  "location": {
   "0": {
    "location": {
     "latitude": 1.38148333333, 
     "city": "Pasir Ris", 
     "zip": "51", 
     "longitude": 103.9509, 
     "country": "Singapore"
    }, 
    "id": "142827132400805", 
    "name": "Pasir Ris Park"
   }
  }
 }, 
 "10152777467838753": {
  "location": {
   "0": {
    "location": {
     "city": "New Haven", 
     "zip": "06511", 
     "country": "United States", 
     "longitude": -72.92861155789, 
     "state": "CT", 
     "latitude": 41.309985165387
    }, 
    "id": "374809010319", 
    "name": "Yale University"
   }, 
   "1": {
    "location": {
     "city": "New Haven", 
     "zip": "06511", 
     "country": "United States", 
     "longitude": -72.92861155789, 
     "state": "CT", 
     "latitude": 41.309985165387
    }, 
    "id": "374809010319", 
    "name": "Yale University"
   }, 
   "2": {
    "location": {
     "latitude": 41.31, 
     "longitude": -72.923611111111
    }, 
    "id": "108541499165950", 
    "name": "New Haven, Connecticut"
   }
  }
 }, 
 "1098075476876587": {
  "location": {
   "0": {
    "location": {
     "city": "New Delhi", 
     "zip": "700001", 
     "country": "India", 
     "longitude": 88.3740687129, 
     "latitude": 22.5807088892, 
     "located_in": "106517799384578"
    }, 
    "id": "152164611567581", 
    "name": "Kolkata North"
   }
  }
 }, 
 "971188092946354": {
  "location": {
   "0": {
    "location": {
     "city": "Singapore", 
     "zip": "238868", 
     "country": "Singapore", 
     "longitude": 103.83174413786, 
     "street": "Singapore", 
     "latitude": 1.3049808735029
    }, 
    "id": "205236476178156", 
    "name": "Shaw Cinema Lido Orchard"
   }
  }
 }, 
 "10204518476016581": {
  "location": {
   "0": {
    "location": {
     "latitude": 34.566666666667, 
     "longitude": 135.76666666667
    }, 
    "id": "103758582996549", 
    "name": "Nara Prefecture, Japan"
   }, 
   "1": {
    "location": {
     "latitude": 35, 
     "longitude": 135.75, 
     "located_in": "149998798354892"
    }, 
    "id": "106514006053250", 
    "name": "Kyoto, Japan"
   }, 
   "2": {
    "location": {
     "latitude": 35, 
     "longitude": 135.75, 
     "located_in": "149998798354892"
    }, 
    "id": "106514006053250", 
    "name": "Kyoto, Japan"
   }, 
   "3": {
    "location": {
     "latitude": 35, 
     "longitude": 135.75, 
     "located_in": "149998798354892"
    }, 
    "id": "106514006053250", 
    "name": "Kyoto, Japan"
   }, 
   "4": {
    "location": {
     "latitude": 35, 
     "longitude": 135.75, 
     "located_in": "149998798354892"
    }, 
    "id": "106514006053250", 
    "name": "Kyoto, Japan"
   }, 
   "5": {
    "location": {
     "city": "New York", 
     "zip": "10017", 
     "country": "United States", 
     "longitude": -73.967328457081, 
     "state": "NY", 
     "latitude": 40.751532576283
    }, 
    "id": "414763148578146", 
    "name": "United Nations NYC"
   }
  }
 }, 
 "859050987499252": {
  "location": {
   "0": {
    "location": {
     "city": "Singapore", 
     "zip": "60", 
     "country": "Singapore", 
     "longitude": 103.7390463629, 
     "street": "1.3125,103.7444444", 
     "latitude": 1.3199466535782
    }, 
    "id": "189991624374145", 
    "name": "Pandan Reservoir"
   }
  }
 }, 
 "939108992774090": {
  "location": {
   "0": {
    "location": {
     "city": "Singapore", 
     "zip": "038981", 
     "country": "Singapore", 
     "longitude": 103.85570414539, 
     "street": "1 Esplanade Drive", 
     "latitude": 1.2894301765932
    }, 
    "id": "116177868444945", 
    "name": "Esplanade \u2013 Theatres On The Bay"
   }, 
   "1": {
    "location": {
     "city": "Singapore", 
     "zip": "Singapore 138614", 
     "country": "Singapore", 
     "longitude": 103.77300819214, 
     "street": "6 College Avenue East, #B1-01", 
     "latitude": 1.3083388453214
    }, 
    "id": "237886262902734", 
    "name": "Yale-NUS College Admissions"
   }, 
   "2": {
    "location": {
     "city": "Singapore", 
     "zip": "238868", 
     "country": "Singapore", 
     "longitude": 103.83174413786, 
     "street": "Singapore", 
     "latitude": 1.3049808735029
    }, 
    "id": "205236476178156", 
    "name": "Shaw Cinema Lido Orchard"
   }, 
   "3": {
    "location": {
     "city": "New Haven", 
     "zip": "06511", 
     "country": "United States", 
     "longitude": -72.92861155789, 
     "state": "CT", 
     "latitude": 41.309985165387
    }, 
    "id": "374809010319", 
    "name": "Yale University"
   }
  }
 }, 
 "10206659144382996": {
  "location": {
   "0": {
    "location": {
     "latitude": 34.566666666667, 
     "longitude": 135.76666666667
    }, 
    "id": "103758582996549", 
    "name": "Nara Prefecture, Japan"
   }, 
   "1": {
    "location": {
     "latitude": 34.566666666667, 
     "longitude": 135.76666666667
    }, 
    "id": "103758582996549", 
    "name": "Nara Prefecture, Japan"
   }, 
   "2": {
    "location": {
     "latitude": 35, 
     "longitude": 135.75, 
     "located_in": "149998798354892"
    }, 
    "id": "106514006053250", 
    "name": "Kyoto, Japan"
   }, 
   "3": {
    "location": {
     "latitude": 35, 
     "longitude": 135.75, 
     "located_in": "149998798354892"
    }, 
    "id": "106514006053250", 
    "name": "Kyoto, Japan"
   }, 
   "4": {
    "location": {
     "latitude": 35, 
     "longitude": 135.75, 
     "located_in": "149998798354892"
    }, 
    "id": "106514006053250", 
    "name": "Kyoto, Japan"
   }
  }
 }, 
 "779244618822295": {
  "location": {
   "0": {
    "location": {
     "city": "Singapore", 
     "zip": "60", 
     "country": "Singapore", 
     "longitude": 103.7390463629, 
     "street": "1.3125,103.7444444", 
     "latitude": 1.3199466535782
    }, 
    "id": "189991624374145", 
    "name": "Pandan Reservoir"
   }
  }
 }, 
 "918457224871220": {
  "location": {
   "0": {
    "location": {
     "city": "New Delhi", 
     "zip": "700001", 
     "country": "India", 
     "longitude": 88.3740687129, 
     "latitude": 22.5807088892, 
     "located_in": "106517799384578"
    }, 
    "id": "152164611567581", 
    "name": "Kolkata North"
   }
  }
 }, 
 "10205349809658097": {
  "location": {
   "0": {
    "location": {
     "latitude": 34.566666666667, 
     "longitude": 135.76666666667
    }, 
    "id": "103758582996549", 
    "name": "Nara Prefecture, Japan"
   }, 
   "1": {
    "location": {
     "latitude": 34.566666666667, 
     "longitude": 135.76666666667
    }, 
    "id": "103758582996549", 
    "name": "Nara Prefecture, Japan"
   }, 
   "2": {
    "location": {
     "latitude": 35, 
     "longitude": 135.75, 
     "located_in": "149998798354892"
    }, 
    "id": "106514006053250", 
    "name": "Kyoto, Japan"
   }, 
   "3": {
    "location": {
     "latitude": 35, 
     "longitude": 135.75, 
     "located_in": "149998798354892"
    }, 
    "id": "106514006053250", 
    "name": "Kyoto, Japan"
   }, 
   "4": {
    "location": {
     "latitude": 35, 
     "longitude": 135.75, 
     "located_in": "149998798354892"
    }, 
    "id": "106514006053250", 
    "name": "Kyoto, Japan"
   }, 
   "5": {
    "location": {
     "latitude": 35, 
     "longitude": 135.75, 
     "located_in": "149998798354892"
    }, 
    "id": "106514006053250", 
    "name": "Kyoto, Japan"
   }
  }
 }, 
 "927464603972106": {
  "location": {
   "0": {
    "location": {
     "city": "New Delhi", 
     "zip": "700001", 
     "country": "India", 
     "longitude": 88.3740687129, 
     "latitude": 22.5807088892, 
     "located_in": "106517799384578"
    }, 
    "id": "152164611567581", 
    "name": "Kolkata North"
   }
  }
 }, 
 "10204229066623003": {
  "location": {
   "0": {
    "location": {
     "city": "Kallang", 
     "zip": "397693", 
     "country": "Singapore", 
     "longitude": 103.87662945522, 
     "street": "5 Stadium Walk", 
     "latitude": 1.3024890725972
    }, 
    "id": "168301239869584", 
    "name": "Leisure Park Kallang"
   }, 
   "1": {
    "location": {
     "city": "Singapore", 
     "country": "Singapore", 
     "longitude": 103.84963430846, 
     "street": "Waterloo Street", 
     "latitude": 1.2986730187541, 
     "located_in": "192018340809091"
    }, 
    "id": "158576354291105", 
    "name": "Sentosa Island"
   }, 
   "2": {
    "location": {
     "city": "Singapore", 
     "country": "Singapore", 
     "longitude": 103.84963430846, 
     "street": "Waterloo Street", 
     "latitude": 1.2986730187541, 
     "located_in": "192018340809091"
    }, 
    "id": "158576354291105", 
    "name": "Sentosa Island"
   }
  }
 }, 
 "819191914817191": {
  "location": {
   "0": {
    "location": {
     "city": "New Delhi", 
     "zip": "700001", 
     "country": "India", 
     "longitude": 88.3740687129, 
     "latitude": 22.5807088892, 
     "located_in": "106517799384578"
    }, 
    "id": "152164611567581", 
    "name": "Kolkata North"
   }
  }
 }, 
 "10152584312600927": {
  "location": {
   "0": {
    "location": {
     "city": "Singapore", 
     "zip": "Singapore 138614", 
     "country": "Singapore", 
     "longitude": 103.77300819214, 
     "street": "6 College Avenue East, #B1-01", 
     "latitude": 1.3083388453214
    }, 
    "id": "237886262902734", 
    "name": "Yale-NUS College Admissions"
   }, 
   "1": {
    "location": {
     "city": "Singapore", 
     "zip": "238868", 
     "country": "Singapore", 
     "longitude": 103.83174413786, 
     "street": "Singapore", 
     "latitude": 1.3049808735029
    }, 
    "id": "205236476178156", 
    "name": "Shaw Cinema Lido Orchard"
   }, 
   "2": {
    "location": {
     "latitude": 41.31, 
     "longitude": -72.923611111111
    }, 
    "id": "108541499165950", 
    "name": "New Haven, Connecticut"
   }
  }
 }, 
 "1066750133338656": {
  "location": {
   "0": {
    "location": {
     "city": "Singapore", 
     "zip": "138614", 
     "country": "Singapore", 
     "longitude": 103.77312591916, 
     "street": "6 College Avenue East", 
     "latitude": 1.3083768512884
    }, 
    "id": "683119715051284", 
    "name": "Yale-NUS College"
   }, 
   "1": {
    "location": {
     "latitude": 41.31, 
     "longitude": -72.923611111111
    }, 
    "id": "108541499165950", 
    "name": "New Haven, Connecticut"
   }, 
   "2": {
    "location": {
     "city": "Singapore", 
     "zip": "238868", 
     "country": "Singapore", 
     "longitude": 103.83174413786, 
     "street": "Singapore", 
     "latitude": 1.3049808735029
    }, 
    "id": "205236476178156", 
    "name": "Shaw Cinema Lido Orchard"
   }, 
   "3": {
    "location": {
     "city": "Singapore", 
     "zip": "238868", 
     "country": "Singapore", 
     "longitude": 103.83174413786, 
     "street": "Singapore", 
     "latitude": 1.3049808735029
    }, 
    "id": "205236476178156", 
    "name": "Shaw Cinema Lido Orchard"
   }
  }
 }, 
 "1582172648691612": {
  "location": {
   "0": {
    "location": {
     "city": "Singapore", 
     "zip": "60", 
     "country": "Singapore", 
     "longitude": 103.7390463629, 
     "street": "1.3125,103.7444444", 
     "latitude": 1.3199466535782
    }, 
    "id": "189991624374145", 
    "name": "Pandan Reservoir"
   }
  }
 }, 
 "802782259806833": {
  "location": {
   "0": {
    "location": {
     "city": "Singapore", 
     "zip": "238868", 
     "country": "Singapore", 
     "longitude": 103.83174413786, 
     "street": "Singapore", 
     "latitude": 1.3049808735029
    }, 
    "id": "205236476178156", 
    "name": "Shaw Cinema Lido Orchard"
   }, 
   "1": {
    "location": {
     "latitude": 41.31, 
     "longitude": -72.923611111111
    }, 
    "id": "108541499165950", 
    "name": "New Haven, Connecticut"
   }
  }
 }, 
 "10203786869983356": {
  "location": {
   "0": {
    "location": {
     "city": "Singapore", 
     "country": "Singapore", 
     "longitude": 103.84963430846, 
     "street": "Waterloo Street", 
     "latitude": 1.2986730187541, 
     "located_in": "192018340809091"
    }, 
    "id": "158576354291105", 
    "name": "Sentosa Island"
   }, 
   "1": {
    "location": {
     "city": "Singapore", 
     "country": "Singapore", 
     "longitude": 103.84963430846, 
     "street": "Waterloo Street", 
     "latitude": 1.2986730187541, 
     "located_in": "192018340809091"
    }, 
    "id": "158576354291105", 
    "name": "Sentosa Island"
   }
  }
 }, 
 "10204920462589383": {
  "location": {
   "0": {
    "location": {
     "city": "Singapore", 
     "zip": "esa informacion es clacificada", 
     "country": "Singapore", 
     "longitude": 103.83606552965, 
     "street": "2 Orchard Link", 
     "latitude": 1.3007442051088, 
     "located_in": "168911576531523"
    }, 
    "id": "133002123435912", 
    "name": "Scape Warehouse"
   }
  }
 }, 
 "883312468378828": {
  "location": {
   "0": {
    "location": {
     "latitude": 34.566666666667, 
     "longitude": 135.76666666667
    }, 
    "id": "103758582996549", 
    "name": "Nara Prefecture, Japan"
   }, 
   "1": {
    "location": {
     "latitude": 35, 
     "longitude": 135.75, 
     "located_in": "149998798354892"
    }, 
    "id": "106514006053250", 
    "name": "Kyoto, Japan"
   }
  }
 }, 
 "10203688831528370": {
  "location": {
   "0": {
    "location": {
     "latitude": 15.561284161277, 
     "city": "Goa", 
     "street": "Baga beach", 
     "longitude": 73.749374030573, 
     "country": "India"
    }, 
    "id": "169240516442006", 
    "name": "Brittos"
   }
  }
 }, 
 "10153173888713792": {
  "location": {
   "0": {
    "location": {
     "city": "New York", 
     "zip": "10017", 
     "country": "United States", 
     "longitude": -73.967328457081, 
     "state": "NY", 
     "latitude": 40.751532576283
    }, 
    "id": "414763148578146", 
    "name": "United Nations NYC"
   }
  }
 }, 
 "10200336343247535": {
  "location": {
   "0": {
    "location": {
     "latitude": 35, 
     "longitude": 135.75, 
     "located_in": "149998798354892"
    }, 
    "id": "106514006053250", 
    "name": "Kyoto, Japan"
   }, 
   "1": {
    "location": {
     "latitude": 35, 
     "longitude": 135.75, 
     "located_in": "149998798354892"
    }, 
    "id": "106514006053250", 
    "name": "Kyoto, Japan"
   }, 
   "2": {
    "location": {
     "latitude": 35, 
     "longitude": 135.75, 
     "located_in": "149998798354892"
    }, 
    "id": "106514006053250", 
    "name": "Kyoto, Japan"
   }, 
   "3": {
    "location": {
     "latitude": 35, 
     "longitude": 135.75, 
     "located_in": "149998798354892"
    }, 
    "id": "106514006053250", 
    "name": "Kyoto, Japan"
   }, 
   "4": {
    "location": {
     "city": "New York", 
     "zip": "10017-3823", 
     "country": "United States", 
     "longitude": -73.981394757146, 
     "state": "NY", 
     "street": "50 Vanderbilt Ave", 
     "latitude": 40.754845032317
    }, 
    "id": "120790267936584", 
    "name": "Yale Club of New York City"
   }, 
   "5": {
    "location": {
     "latitude": 41.31, 
     "longitude": -72.923611111111
    }, 
    "id": "108541499165950", 
    "name": "New Haven, Connecticut"
   }
  }
 }, 
 "10205877078263443": {
  "location": {
   "0": {
    "location": {
     "latitude": 1.32159865816, 
     "city": "Singapore", 
     "longitude": 103.858387794, 
     "country": "Singapore"
    }, 
    "id": "279424168838364", 
    "name": "NUS University Cultural Centre"
   }
  }
 }, 
 "10153110215438771": {
  "location": {
   "0": {
    "location": {
     "latitude": 41.3611, 
     "longitude": -71.9669
    }, 
    "id": "112832862061865", 
    "name": "Mystic Seaport, Connecticut"
   }, 
   "1": {
    "location": {
     "city": "New York", 
     "zip": "10017", 
     "country": "United States", 
     "longitude": -73.967328457081, 
     "state": "NY", 
     "latitude": 40.751532576283
    }, 
    "id": "414763148578146", 
    "name": "United Nations NYC"
   }
  }
 }, 
 "10152769684359366": {
  "location": {
   "0": {
    "location": {
     "latitude": 41.31, 
     "longitude": -72.923611111111
    }, 
    "id": "108541499165950", 
    "name": "New Haven, Connecticut"
   }, 
   "1": {
    "location": {
     "city": "Singapore", 
     "zip": "238868", 
     "country": "Singapore", 
     "longitude": 103.83174413786, 
     "street": "Singapore", 
     "latitude": 1.3049808735029
    }, 
    "id": "205236476178156", 
    "name": "Shaw Cinema Lido Orchard"
   }, 
   "2": {
    "location": {
     "city": "Singapore", 
     "zip": "238868", 
     "country": "Singapore", 
     "longitude": 103.83174413786, 
     "street": "Singapore", 
     "latitude": 1.3049808735029
    }, 
    "id": "205236476178156", 
    "name": "Shaw Cinema Lido Orchard"
   }, 
   "3": {
    "location": {
     "city": "New York", 
     "zip": "10017", 
     "country": "United States", 
     "longitude": -73.967328457081, 
     "state": "NY", 
     "latitude": 40.751532576283
    }, 
    "id": "414763148578146", 
    "name": "United Nations NYC"
   }
  }
 }, 
 "10153128943090480": {
  "location": {
   "0": {
    "location": {
     "latitude": 1.38148333333, 
     "city": "Pasir Ris", 
     "zip": "51", 
     "longitude": 103.9509, 
     "country": "Singapore"
    }, 
    "id": "142827132400805", 
    "name": "Pasir Ris Park"
   }
  }
 }, 
 "946351062050646": {
  "location": {
   "0": {
    "location": {
     "city": "New Delhi", 
     "zip": "700001", 
     "country": "India", 
     "longitude": 88.3740687129, 
     "latitude": 22.5807088892, 
     "located_in": "106517799384578"
    }, 
    "id": "152164611567581", 
    "name": "Kolkata North"
   }
  }
 }, 
 "10153185411932840": {
  "location": {
   "0": {
    "location": {
     "city": "Kent Ridge", 
     "zip": "119279", 
     "country": "Singapore", 
     "longitude": 103.77217930799, 
     "street": "50 Kent Ridge Crescent, National University of Singapore", 
     "latitude": 1.3017797541883
    }, 
    "id": "107498635997871", 
    "name": "University Cultural Centre"
   }
  }
 }, 
 "986131834737918": {
  "location": {
   "0": {
    "location": {
     "city": "New Delhi", 
     "zip": "700001", 
     "country": "India", 
     "longitude": 88.3740687129, 
     "latitude": 22.5807088892, 
     "located_in": "106517799384578"
    }, 
    "id": "152164611567581", 
    "name": "Kolkata North"
   }
  }
 }, 
 "1069284219753381": {
  "location": {
   "0": {
    "location": {
     "city": "Calcutta", 
     "zip": "700033", 
     "country": "India", 
     "longitude": 88.354139948432, 
     "street": "26, Prince Anwar Shah Road ", 
     "latitude": 22.502000247155
    }, 
    "id": "388168451271996", 
    "name": "Princeton Club"
   }
  }
 }, 
 "10153162594773838": {
  "location": {
   "0": {
    "location": {
     "latitude": 1.38148333333, 
     "city": "Pasir Ris", 
     "zip": "51", 
     "longitude": 103.9509, 
     "country": "Singapore"
    }, 
    "id": "142827132400805", 
    "name": "Pasir Ris Park"
   }
  }
 }, 
 "10152833665009790": {
  "location": {
   "0": {
    "location": {
     "city": "New York", 
     "zip": "10017", 
     "country": "United States", 
     "longitude": -73.967328457081, 
     "state": "NY", 
     "latitude": 40.751532576283
    }, 
    "id": "414763148578146", 
    "name": "United Nations NYC"
   }
  }
 }, 
 "10152779774387887": {
  "location": {
   "0": {
    "location": {
     "city": "Singapore", 
     "zip": "60", 
     "country": "Singapore", 
     "longitude": 103.7390463629, 
     "street": "1.3125,103.7444444", 
     "latitude": 1.3199466535782
    }, 
    "id": "189991624374145", 
    "name": "Pandan Reservoir"
   }, 
   "1": {
    "location": {
     "latitude": 34.566666666667, 
     "longitude": 135.76666666667
    }, 
    "id": "103758582996549", 
    "name": "Nara Prefecture, Japan"
   }, 
   "2": {
    "location": {
     "latitude": 35, 
     "longitude": 135.75, 
     "located_in": "149998798354892"
    }, 
    "id": "106514006053250", 
    "name": "Kyoto, Japan"
   }, 
   "3": {
    "location": {
     "latitude": 35, 
     "longitude": 135.75, 
     "located_in": "149998798354892"
    }, 
    "id": "106514006053250", 
    "name": "Kyoto, Japan"
   }, 
   "4": {
    "location": {
     "latitude": 35, 
     "longitude": 135.75, 
     "located_in": "149998798354892"
    }, 
    "id": "106514006053250", 
    "name": "Kyoto, Japan"
   }, 
   "5": {
    "location": {
     "latitude": 35, 
     "longitude": 135.75, 
     "located_in": "149998798354892"
    }, 
    "id": "106514006053250", 
    "name": "Kyoto, Japan"
   }
  }
 }, 
 "10206148870426192": {
  "location": {
   "0": {
    "location": {
     "city": "New Delhi", 
     "zip": "700001", 
     "country": "India", 
     "longitude": 88.3740687129, 
     "latitude": 22.5807088892, 
     "located_in": "106517799384578"
    }, 
    "id": "152164611567581", 
    "name": "Kolkata North"
   }
  }
 }, 
 "10153127434967980": {
  "location": {
   "0": {
    "location": {
     "city": "Singapore", 
     "zip": "esa informacion es clacificada", 
     "country": "Singapore", 
     "longitude": 103.83606552965, 
     "street": "2 Orchard Link", 
     "latitude": 1.3007442051088, 
     "located_in": "168911576531523"
    }, 
    "id": "133002123435912", 
    "name": "Scape Warehouse"
   }
  }
 }, 
 "1008506552510158": {
  "location": {
   "0": {
    "location": {
     "city": "Singapore", 
     "zip": "60", 
     "country": "Singapore", 
     "longitude": 103.7390463629, 
     "street": "1.3125,103.7444444", 
     "latitude": 1.3199466535782
    }, 
    "id": "189991624374145", 
    "name": "Pandan Reservoir"
   }, 
   "1": {
    "location": {
     "city": "Singapore", 
     "zip": "238868", 
     "country": "Singapore", 
     "longitude": 103.83174413786, 
     "street": "Singapore", 
     "latitude": 1.3049808735029
    }, 
    "id": "205236476178156", 
    "name": "Shaw Cinema Lido Orchard"
   }
  }
 }, 
 "10152704282466860": {
  "location": {
   "0": {
    "location": {
     "city": "Singapore", 
     "zip": "Singapore 138614", 
     "country": "Singapore", 
     "longitude": 103.77300819214, 
     "street": "6 College Avenue East, #B1-01", 
     "latitude": 1.3083388453214
    }, 
    "id": "237886262902734", 
    "name": "Yale-NUS College Admissions"
   }, 
   "1": {
    "id": "54779960819", 
    "name": "United Nations"
   }
  }
 }, 
 "10204013206556125": {
  "location": {
   "0": {
    "location": {
     "latitude": 1.3025150002815, 
     "city": "Singapore", 
     "longitude": 103.87661539041, 
     "country": "Singapore"
    }, 
    "id": "137858336279207", 
    "name": "Kallang Bowl @ Kallang Leisure Park"
   }
  }
 }, 
 "10206228487610292": {
  "location": {
   "0": {
    "location": {
     "city": "Singapore", 
     "zip": "038981", 
     "country": "Singapore", 
     "longitude": 103.85570414539, 
     "street": "1 Esplanade Drive", 
     "latitude": 1.2894301765932
    }, 
    "id": "116177868444945", 
    "name": "Esplanade \u2013 Theatres On The Bay"
   }, 
   "1": {
    "location": {
     "city": "Singapore", 
     "zip": "238868", 
     "country": "Singapore", 
     "longitude": 103.83174413786, 
     "street": "Singapore", 
     "latitude": 1.3049808735029
    }, 
    "id": "205236476178156", 
    "name": "Shaw Cinema Lido Orchard"
   }, 
   "2": {
    "location": {
     "city": "Singapore", 
     "zip": "238868", 
     "country": "Singapore", 
     "longitude": 103.83174413786, 
     "street": "Singapore", 
     "latitude": 1.3049808735029
    }, 
    "id": "205236476178156", 
    "name": "Shaw Cinema Lido Orchard"
   }, 
   "3": {
    "location": {
     "city": "New York", 
     "zip": "10017", 
     "country": "United States", 
     "longitude": -73.967328457081, 
     "state": "NY", 
     "latitude": 40.751532576283
    }, 
    "id": "414763148578146", 
    "name": "United Nations NYC"
   }
  }
 }, 
 "10155277553325134": {
  "location": {
   "0": {
    "location": {
     "city": "Singapore", 
     "zip": "57", 
     "country": "Singapore", 
     "longitude": 103.84312850858, 
     "latitude": 1.3469430076173, 
     "located_in": "187522364593684"
    }, 
    "id": "205046542850478", 
    "name": "RI (JC)"
   }
  }
 }, 
 "10205230416753423": {
  "location": {
   "0": {
    "location": {
     "city": "Singapore", 
     "zip": "Singapore 138614", 
     "country": "Singapore", 
     "longitude": 103.77300819214, 
     "street": "6 College Avenue East, #B1-01", 
     "latitude": 1.3083388453214
    }, 
    "id": "237886262902734", 
    "name": "Yale-NUS College Admissions"
   }, 
   "1": {
    "location": {
     "city": "Agawam", 
     "zip": "01001", 
     "country": "United States", 
     "longitude": -72.615667102052, 
     "state": "MA", 
     "latitude": 42.037672020075
    }, 
    "id": "52129033739", 
    "name": "Six Flags New England"
   }, 
   "2": {
    "location": {
     "city": "Agawam", 
     "zip": "01001", 
     "country": "United States", 
     "longitude": -72.615667102052, 
     "state": "MA", 
     "latitude": 42.037672020075
    }, 
    "id": "52129033739", 
    "name": "Six Flags New England"
   }, 
   "3": {
    "location": {
     "city": "Agawam", 
     "zip": "01001", 
     "country": "United States", 
     "longitude": -72.615667102052, 
     "state": "MA", 
     "latitude": 42.037672020075
    }, 
    "id": "52129033739", 
    "name": "Six Flags New England"
   }
  }
 }, 
 "698681731328": {
  "location": {
   "0": {
    "location": {
     "city": "Singapore", 
     "zip": "esa informacion es clacificada", 
     "country": "Singapore", 
     "longitude": 103.83606552965, 
     "street": "2 Orchard Link", 
     "latitude": 1.3007442051088, 
     "located_in": "168911576531523"
    }, 
    "id": "133002123435912", 
    "name": "Scape Warehouse"
   }
  }
 }, 
 "10153175637197767": {
  "location": {
   "0": {
    "location": {
     "city": "Singapore", 
     "zip": "esa informacion es clacificada", 
     "country": "Singapore", 
     "longitude": 103.83606552965, 
     "street": "2 Orchard Link", 
     "latitude": 1.3007442051088, 
     "located_in": "168911576531523"
    }, 
    "id": "133002123435912", 
    "name": "Scape Warehouse"
   }
  }
 }, 
 "930516523667388": {
  "location": {
   "0": {
    "location": {
     "city": "New Delhi", 
     "zip": "700001", 
     "country": "India", 
     "longitude": 88.3740687129, 
     "latitude": 22.5807088892, 
     "located_in": "106517799384578"
    }, 
    "id": "152164611567581", 
    "name": "Kolkata North"
   }
  }
 }, 
 "10205054665379006": {
  "location": {
   "0": {
    "location": {
     "city": "Singapore", 
     "zip": "57", 
     "country": "Singapore", 
     "longitude": 103.84312850858, 
     "latitude": 1.3469430076173, 
     "located_in": "187522364593684"
    }, 
    "id": "205046542850478", 
    "name": "RI (JC)"
   }, 
   "1": {
    "location": {
     "city": "Singapore", 
     "zip": "57", 
     "country": "Singapore", 
     "longitude": 103.84312850858, 
     "latitude": 1.3469430076173, 
     "located_in": "187522364593684"
    }, 
    "id": "205046542850478", 
    "name": "RI (JC)"
   }
  }
 }, 
 "10152860682756185": {
  "location": {
   "0": {
    "location": {
     "city": "Singapore", 
     "zip": "57", 
     "country": "Singapore", 
     "longitude": 103.84312850858, 
     "latitude": 1.3469430076173, 
     "located_in": "187522364593684"
    }, 
    "id": "205046542850478", 
    "name": "RI (JC)"
   }, 
   "1": {
    "location": {
     "city": "Singapore", 
     "zip": "57", 
     "country": "Singapore", 
     "longitude": 103.84312850858, 
     "latitude": 1.3469430076173, 
     "located_in": "187522364593684"
    }, 
    "id": "205046542850478", 
    "name": "RI (JC)"
   }, 
   "2": {
    "location": {
     "city": "Singapore", 
     "zip": "57", 
     "country": "Singapore", 
     "longitude": 103.84312850858, 
     "latitude": 1.3469430076173, 
     "located_in": "187522364593684"
    }, 
    "id": "205046542850478", 
    "name": "RI (JC)"
   }
  }
 }, 
 "10203937212810853": {
  "location": {
   "0": {
    "location": {
     "city": "Singapore", 
     "zip": "538789", 
     "country": "Singapore", 
     "longitude": 103.883092, 
     "street": "11 Hougang Avenue 8  ", 
     "latitude": 1.37243
    }, 
    "id": "105923679439234", 
    "name": "Xinmin Secondary School"
   }
  }
 }, 
 "10153197675633281": {
  "location": {
   "0": {
    "location": {
     "city": "Singapore", 
     "zip": "038981", 
     "country": "Singapore", 
     "longitude": 103.85570414539, 
     "street": "1 Esplanade Drive", 
     "latitude": 1.2894301765932
    }, 
    "id": "116177868444945", 
    "name": "Esplanade \u2013 Theatres On The Bay"
   }, 
   "1": {
    "location": {
     "city": "New Haven", 
     "zip": "06511", 
     "country": "United States", 
     "longitude": -72.92861155789, 
     "state": "CT", 
     "latitude": 41.309985165387
    }, 
    "id": "374809010319", 
    "name": "Yale University"
   }
  }
 }, 
 "10205378923304250": {
  "location": {
   "0": {
    "location": {
     "latitude": 1.32159865816, 
     "city": "Singapore", 
     "longitude": 103.858387794, 
     "country": "Singapore"
    }, 
    "id": "279424168838364", 
    "name": "NUS University Cultural Centre"
   }
  }
 }, 
 "10153121843406308": {
  "location": {
   "0": {
    "location": {
     "city": "Singapore", 
     "zip": "57", 
     "country": "Singapore", 
     "longitude": 103.84312850858, 
     "latitude": 1.3469430076173, 
     "located_in": "187522364593684"
    }, 
    "id": "205046542850478", 
    "name": "RI (JC)"
   }, 
   "1": {
    "location": {
     "city": "Singapore", 
     "zip": "57", 
     "country": "Singapore", 
     "longitude": 103.84312850858, 
     "latitude": 1.3469430076173, 
     "located_in": "187522364593684"
    }, 
    "id": "205046542850478", 
    "name": "RI (JC)"
   }
  }
 }, 
 "813165672103276": {
  "location": {
   "0": {
    "location": {
     "city": "Calcutta", 
     "zip": "700054", 
     "country": "India", 
     "longitude": 88.400796451252, 
     "street": "164/1 Maniktala Main Road, 9th Floor [Beside Apollo Gleaneagles Hospital EM Bypass", 
     "latitude": 22.577807488535
    }, 
    "id": "211106118905826", 
    "name": "Mani Square Mall"
   }, 
   "1": {
    "location": {
     "city": "Calcutta", 
     "zip": "700054", 
     "country": "India", 
     "longitude": 88.400796451252, 
     "street": "164/1 Maniktala Main Road, 9th Floor [Beside Apollo Gleaneagles Hospital EM Bypass", 
     "latitude": 22.577807488535
    }, 
    "id": "211106118905826", 
    "name": "Mani Square Mall"
   }, 
   "2": {
    "location": {
     "city": "Calcutta", 
     "zip": "700054", 
     "country": "India", 
     "longitude": 88.400796451252, 
     "street": "164/1 Maniktala Main Road, 9th Floor [Beside Apollo Gleaneagles Hospital EM Bypass", 
     "latitude": 22.577807488535
    }, 
    "id": "211106118905826", 
    "name": "Mani Square Mall"
   }
  }
 }, 
 "10152707657234599": {
  "location": {
   "0": {
    "location": {
     "city": "Singapore", 
     "zip": "138614", 
     "country": "Singapore", 
     "longitude": 103.77312591916, 
     "street": "6 College Avenue East", 
     "latitude": 1.3083768512884
    }, 
    "id": "683119715051284", 
    "name": "Yale-NUS College"
   }, 
   "1": {
    "location": {
     "latitude": 41.31, 
     "longitude": -72.923611111111
    }, 
    "id": "108541499165950", 
    "name": "New Haven, Connecticut"
   }
  }
 }, 
 "10205222964192129": {
  "location": {
   "0": {
    "location": {
     "city": "Kallang", 
     "zip": "397693", 
     "country": "Singapore", 
     "longitude": 103.87662945522, 
     "street": "5 Stadium Walk", 
     "latitude": 1.3024890725972
    }, 
    "id": "168301239869584", 
    "name": "Leisure Park Kallang"
   }, 
   "1": {
    "location": {
     "city": "Singapore", 
     "country": "Singapore", 
     "longitude": 103.84963430846, 
     "street": "Waterloo Street", 
     "latitude": 1.2986730187541, 
     "located_in": "192018340809091"
    }, 
    "id": "158576354291105", 
    "name": "Sentosa Island"
   }
  }
 }, 
 "10155266360800591": {
  "location": {
   "0": {
    "location": {
     "city": "Singapore", 
     "zip": "60", 
     "country": "Singapore", 
     "longitude": 103.7390463629, 
     "street": "1.3125,103.7444444", 
     "latitude": 1.3199466535782
    }, 
    "id": "189991624374145", 
    "name": "Pandan Reservoir"
   }
  }
 }, 
 "1008179285876850": {
  "location": {
   "0": {
    "location": {
     "latitude": 1.3025150002815, 
     "city": "Singapore", 
     "longitude": 103.87661539041, 
     "country": "Singapore"
    }, 
    "id": "137858336279207", 
    "name": "Kallang Bowl @ Kallang Leisure Park"
   }
  }
 }, 
 "10153153210468609": {
  "location": {
   "0": {
    "location": {
     "city": "Singapore", 
     "zip": "57", 
     "country": "Singapore", 
     "longitude": 103.84312850858, 
     "latitude": 1.3469430076173, 
     "located_in": "187522364593684"
    }, 
    "id": "205046542850478", 
    "name": "RI (JC)"
   }, 
   "1": {
    "location": {
     "city": "Singapore", 
     "zip": "57", 
     "country": "Singapore", 
     "longitude": 103.84312850858, 
     "latitude": 1.3469430076173, 
     "located_in": "187522364593684"
    }, 
    "id": "205046542850478", 
    "name": "RI (JC)"
   }, 
   "2": {
    "location": {
     "city": "Singapore", 
     "zip": "57", 
     "country": "Singapore", 
     "longitude": 103.84312850858, 
     "latitude": 1.3469430076173, 
     "located_in": "187522364593684"
    }, 
    "id": "205046542850478", 
    "name": "RI (JC)"
   }
  }
 }, 
 "10152800854631443": {
  "location": {
   "0": {
    "location": {
     "city": "Singapore", 
     "zip": "esa informacion es clacificada", 
     "country": "Singapore", 
     "longitude": 103.83606552965, 
     "street": "2 Orchard Link", 
     "latitude": 1.3007442051088, 
     "located_in": "168911576531523"
    }, 
    "id": "133002123435912", 
    "name": "Scape Warehouse"
   }
  }
 }, 
 "10153063396996357": {
  "location": {
   "0": {
    "location": {
     "city": "Singapore", 
     "zip": "Singapore 138614", 
     "country": "Singapore", 
     "longitude": 103.77300819214, 
     "street": "6 College Avenue East, #B1-01", 
     "latitude": 1.3083388453214
    }, 
    "id": "237886262902734", 
    "name": "Yale-NUS College Admissions"
   }, 
   "1": {
    "location": {
     "latitude": 1.29306, 
     "longitude": 103.856, 
     "located_in": "240852582604992"
    }, 
    "id": "105565836144069", 
    "name": "Singapore"
   }
  }
 }, 
 "10152892740514818": {
  "location": {
   "0": {
    "location": {
     "latitude": 1.38148333333, 
     "city": "Pasir Ris", 
     "zip": "51", 
     "longitude": 103.9509, 
     "country": "Singapore"
    }, 
    "id": "142827132400805", 
    "name": "Pasir Ris Park"
   }
  }
 }, 
 "10204092870829234": {
  "location": {
   "0": {
    "location": {
     "city": "Singapore", 
     "zip": "60", 
     "country": "Singapore", 
     "longitude": 103.7390463629, 
     "street": "1.3125,103.7444444", 
     "latitude": 1.3199466535782
    }, 
    "id": "189991624374145", 
    "name": "Pandan Reservoir"
   }
  }
 }, 
 "10204653372946495": {
  "location": {
   "0": {
    "location": {
     "latitude": 1.38148333333, 
     "city": "Pasir Ris", 
     "zip": "51", 
     "longitude": 103.9509, 
     "country": "Singapore"
    }, 
    "id": "142827132400805", 
    "name": "Pasir Ris Park"
   }
  }
 }, 
 "10152761677242106": {
  "location": {
   "0": {
    "location": {
     "city": "Singapore", 
     "zip": "Singapore 138614", 
     "country": "Singapore", 
     "longitude": 103.77300819214, 
     "street": "6 College Avenue East, #B1-01", 
     "latitude": 1.3083388453214
    }, 
    "id": "237886262902734", 
    "name": "Yale-NUS College Admissions"
   }
  }
 }, 
 "10204684851655165": {
  "location": {
   "0": {
    "location": {
     "city": "Singapore", 
     "zip": "60", 
     "country": "Singapore", 
     "longitude": 103.7390463629, 
     "street": "1.3125,103.7444444", 
     "latitude": 1.3199466535782
    }, 
    "id": "189991624374145", 
    "name": "Pandan Reservoir"
   }, 
   "1": {
    "location": {
     "city": "Singapore", 
     "zip": "Singapore 138614", 
     "country": "Singapore", 
     "longitude": 103.77300819214, 
     "street": "6 College Avenue East, #B1-01", 
     "latitude": 1.3083388453214
    }, 
    "id": "237886262902734", 
    "name": "Yale-NUS College Admissions"
   }, 
   "2": {
    "location": {
     "city": "Mystic", 
     "zip": "06355", 
     "country": "United States", 
     "longitude": -71.953264097181, 
     "state": "CT", 
     "latitude": 41.373410917558
    }, 
    "id": "187099324676060", 
    "name": "Mystic Seaport & Aquarium"
   }, 
   "3": {
    "location": {
     "city": "Singapore", 
     "zip": "238868", 
     "country": "Singapore", 
     "longitude": 103.83174413786, 
     "street": "Singapore", 
     "latitude": 1.3049808735029
    }, 
    "id": "205236476178156", 
    "name": "Shaw Cinema Lido Orchard"
   }
  }
 }, 
 "698684755268": {
  "location": {
   "0": {
    "location": {
     "city": "Singapore", 
     "zip": "237978", 
     "country": "Singapore", 
     "longitude": 103.83612196635, 
     "street": "2 Orchard Link", 
     "latitude": 1.3008029306419
    }, 
    "id": "168911576531523", 
    "name": "SCAPE"
   }, 
   "1": {
    "location": {
     "city": "Singapore", 
     "zip": "237978", 
     "country": "Singapore", 
     "longitude": 103.83612196635, 
     "street": "2 Orchard Link", 
     "latitude": 1.3008029306419
    }, 
    "id": "168911576531523", 
    "name": "SCAPE"
   }
  }
 }, 
 "10205262561536512": {
  "location": {
   "0": {
    "location": {
     "city": "Singapore", 
     "zip": "238868", 
     "country": "Singapore", 
     "longitude": 103.83174413786, 
     "street": "Singapore", 
     "latitude": 1.3049808735029
    }, 
    "id": "205236476178156", 
    "name": "Shaw Cinema Lido Orchard"
   }, 
   "1": {
    "location": {
     "city": "Singapore", 
     "zip": "238868", 
     "country": "Singapore", 
     "longitude": 103.83174413786, 
     "street": "Singapore", 
     "latitude": 1.3049808735029
    }, 
    "id": "205236476178156", 
    "name": "Shaw Cinema Lido Orchard"
   }
  }
 }, 
 "10202768545849724": {
  "location": {
   "0": {
    "location": {
     "city": "Singapore", 
     "zip": "538789", 
     "country": "Singapore", 
     "longitude": 103.883092, 
     "street": "11 Hougang Avenue 8  ", 
     "latitude": 1.37243
    }, 
    "id": "105923679439234", 
    "name": "Xinmin Secondary School"
   }
  }
 }, 
 "946839958659718": {
  "location": {
   "0": {
    "location": {
     "latitude": 1.38148333333, 
     "city": "Pasir Ris", 
     "zip": "51", 
     "longitude": 103.9509, 
     "country": "Singapore"
    }, 
    "id": "142827132400805", 
    "name": "Pasir Ris Park"
   }, 
   "1": {
    "location": {
     "city": "Singapore", 
     "zip": "238868", 
     "country": "Singapore", 
     "longitude": 103.83174413786, 
     "street": "Singapore", 
     "latitude": 1.3049808735029
    }, 
    "id": "205236476178156", 
    "name": "Shaw Cinema Lido Orchard"
   }
  }
 }, 
 "10153222259154248": {
  "location": {
   "0": {
    "location": {
     "city": "Kent Ridge", 
     "zip": "119279", 
     "country": "Singapore", 
     "longitude": 103.77217930799, 
     "street": "50 Kent Ridge Crescent, National University of Singapore", 
     "latitude": 1.3017797541883
    }, 
    "id": "107498635997871", 
    "name": "University Cultural Centre"
   }, 
   "1": {
    "location": {
     "city": "Singapore", 
     "zip": "60", 
     "country": "Singapore", 
     "longitude": 103.7390463629, 
     "street": "1.3125,103.7444444", 
     "latitude": 1.3199466535782
    }, 
    "id": "189991624374145", 
    "name": "Pandan Reservoir"
   }, 
   "2": {
    "location": {
     "latitude": 40.7142, 
     "longitude": -74.0064, 
     "located_in": "104048972965193"
    }, 
    "id": "108424279189115", 
    "name": "New York, New York"
   }
  }
 }, 
 "10203954155069647": {
  "location": {
   "0": {
    "location": {
     "city": "Singapore", 
     "zip": "538789", 
     "country": "Singapore", 
     "longitude": 103.883092, 
     "street": "11 Hougang Avenue 8  ", 
     "latitude": 1.37243
    }, 
    "id": "105923679439234", 
    "name": "Xinmin Secondary School"
   }
  }
 }, 
 "10206327235287593": {
  "location": {
   "0": {
    "location": {
     "city": "Singapore", 
     "zip": "60", 
     "country": "Singapore", 
     "longitude": 103.7390463629, 
     "street": "1.3125,103.7444444", 
     "latitude": 1.3199466535782
    }, 
    "id": "189991624374145", 
    "name": "Pandan Reservoir"
   }, 
   "1": {
    "id": "54779960819", 
    "name": "United Nations"
   }
  }
 }, 
 "899930956739574": {
  "location": {
   "0": {
    "location": {
     "city": "Singapore", 
     "zip": "60", 
     "country": "Singapore", 
     "longitude": 103.7390463629, 
     "street": "1.3125,103.7444444", 
     "latitude": 1.3199466535782
    }, 
    "id": "189991624374145", 
    "name": "Pandan Reservoir"
   }, 
   "1": {
    "location": {
     "latitude": 1.38148333333, 
     "city": "Pasir Ris", 
     "zip": "51", 
     "longitude": 103.9509, 
     "country": "Singapore"
    }, 
    "id": "142827132400805", 
    "name": "Pasir Ris Park"
   }
  }
 }, 
 "10204089291216939": {
  "location": {
   "0": {
    "location": {
     "city": "Singapore", 
     "zip": "038981", 
     "country": "Singapore", 
     "longitude": 103.85570414539, 
     "street": "1 Esplanade Drive", 
     "latitude": 1.2894301765932
    }, 
    "id": "116177868444945", 
    "name": "Esplanade \u2013 Theatres On The Bay"
   }, 
   "1": {
    "location": {
     "city": "Singapore", 
     "zip": "238868", 
     "country": "Singapore", 
     "longitude": 103.83174413786, 
     "street": "Singapore", 
     "latitude": 1.3049808735029
    }, 
    "id": "205236476178156", 
    "name": "Shaw Cinema Lido Orchard"
   }, 
   "2": {
    "location": {
     "city": "New Haven", 
     "zip": "06511", 
     "country": "United States", 
     "longitude": -72.92861155789, 
     "state": "CT", 
     "latitude": 41.309985165387
    }, 
    "id": "374809010319", 
    "name": "Yale University"
   }
  }
 }, 
 "619114451552865": {
  "location": {
   "0": {
    "location": {
     "city": "Calcutta", 
     "zip": "700032", 
     "country": "India", 
     "longitude": 88.3678, 
     "street": "Jadavpur", 
     "latitude": 22.49281
    }, 
    "id": "141134689286150", 
    "name": "Jadavpur University"
   }
  }
 }, 
 "10152713843072727": {
  "location": {
   "0": {
    "location": {
     "latitude": 34.566666666667, 
     "longitude": 135.76666666667
    }, 
    "id": "103758582996549", 
    "name": "Nara Prefecture, Japan"
   }, 
   "1": {
    "location": {
     "latitude": 34.566666666667, 
     "longitude": 135.76666666667
    }, 
    "id": "103758582996549", 
    "name": "Nara Prefecture, Japan"
   }, 
   "2": {
    "location": {
     "latitude": 35, 
     "longitude": 135.75, 
     "located_in": "149998798354892"
    }, 
    "id": "106514006053250", 
    "name": "Kyoto, Japan"
   }, 
   "3": {
    "location": {
     "latitude": 35, 
     "longitude": 135.75, 
     "located_in": "149998798354892"
    }, 
    "id": "106514006053250", 
    "name": "Kyoto, Japan"
   }, 
   "4": {
    "location": {
     "latitude": 35, 
     "longitude": 135.75, 
     "located_in": "149998798354892"
    }, 
    "id": "106514006053250", 
    "name": "Kyoto, Japan"
   }, 
   "5": {
    "location": {
     "latitude": 35, 
     "longitude": 135.75, 
     "located_in": "149998798354892"
    }, 
    "id": "106514006053250", 
    "name": "Kyoto, Japan"
   }, 
   "6": {
    "location": {
     "latitude": 41.31, 
     "longitude": -72.923611111111
    }, 
    "id": "108541499165950", 
    "name": "New Haven, Connecticut"
   }
  }
 }, 
 "10204607353518437": {
  "location": {
   "0": {
    "location": {
     "city": "Singapore", 
     "zip": "238868", 
     "country": "Singapore", 
     "longitude": 103.83174413786, 
     "street": "Singapore", 
     "latitude": 1.3049808735029
    }, 
    "id": "205236476178156", 
    "name": "Shaw Cinema Lido Orchard"
   }, 
   "1": {
    "location": {
     "city": "Singapore", 
     "zip": "238868", 
     "country": "Singapore", 
     "longitude": 103.83174413786, 
     "street": "Singapore", 
     "latitude": 1.3049808735029
    }, 
    "id": "205236476178156", 
    "name": "Shaw Cinema Lido Orchard"
   }
  }
 }, 
 "10153081600299123": {
  "location": {
   "0": {
    "location": {
     "latitude": 1.38148333333, 
     "city": "Pasir Ris", 
     "zip": "51", 
     "longitude": 103.9509, 
     "country": "Singapore"
    }, 
    "id": "142827132400805", 
    "name": "Pasir Ris Park"
   }
  }
 }, 
 "10155244035255004": {
  "location": {
   "0": {
    "location": {
     "city": "Singapore", 
     "zip": "238868", 
     "country": "Singapore", 
     "longitude": 103.83174413786, 
     "street": "Singapore", 
     "latitude": 1.3049808735029
    }, 
    "id": "205236476178156", 
    "name": "Shaw Cinema Lido Orchard"
   }
  }
 }, 
 "10153801638203438": {
  "location": {
   "0": {
    "location": {
     "latitude": 34.566666666667, 
     "longitude": 135.76666666667
    }, 
    "id": "103758582996549", 
    "name": "Nara Prefecture, Japan"
   }, 
   "1": {
    "location": {
     "latitude": 35, 
     "longitude": 135.75, 
     "located_in": "149998798354892"
    }, 
    "id": "106514006053250", 
    "name": "Kyoto, Japan"
   }, 
   "2": {
    "location": {
     "latitude": 35, 
     "longitude": 135.75, 
     "located_in": "149998798354892"
    }, 
    "id": "106514006053250", 
    "name": "Kyoto, Japan"
   }
  }
 }, 
 "10205034360591750": {
  "location": {
   "0": {
    "location": {
     "city": "New Delhi", 
     "zip": "700001", 
     "country": "India", 
     "longitude": 88.3740687129, 
     "latitude": 22.5807088892, 
     "located_in": "106517799384578"
    }, 
    "id": "152164611567581", 
    "name": "Kolkata North"
   }
  }
 }, 
 "799578943453954": {
  "location": {
   "0": {
    "location": {
     "city": "New Delhi", 
     "zip": "700001", 
     "country": "India", 
     "longitude": 88.3740687129, 
     "latitude": 22.5807088892, 
     "located_in": "106517799384578"
    }, 
    "id": "152164611567581", 
    "name": "Kolkata North"
   }
  }
 }, 
 "10203860360449248": {
  "location": {
   "0": {
    "location": {
     "city": "Singapore", 
     "country": "Singapore", 
     "longitude": 103.84963430846, 
     "street": "Waterloo Street", 
     "latitude": 1.2986730187541, 
     "located_in": "192018340809091"
    }, 
    "id": "158576354291105", 
    "name": "Sentosa Island"
   }
  }
 }, 
 "10153140893095761": {
  "location": {
   "0": {
    "location": {
     "city": "Singapore", 
     "zip": "038981", 
     "country": "Singapore", 
     "longitude": 103.85570414539, 
     "street": "1 Esplanade Drive", 
     "latitude": 1.2894301765932
    }, 
    "id": "116177868444945", 
    "name": "Esplanade \u2013 Theatres On The Bay"
   }, 
   "1": {
    "location": {
     "city": "Singapore", 
     "zip": "Singapore 138614", 
     "country": "Singapore", 
     "longitude": 103.77300819214, 
     "street": "6 College Avenue East, #B1-01", 
     "latitude": 1.3083388453214
    }, 
    "id": "237886262902734", 
    "name": "Yale-NUS College Admissions"
   }, 
   "2": {
    "location": {
     "city": "New York", 
     "zip": "10017-3823", 
     "country": "United States", 
     "longitude": -73.981394757146, 
     "state": "NY", 
     "street": "50 Vanderbilt Ave", 
     "latitude": 40.754845032317
    }, 
    "id": "120790267936584", 
    "name": "Yale Club of New York City"
   }
  }
 }, 
 "base_id": "10206531248346631", 
 "10152746599913861": {
  "location": {
   "0": {
    "location": {
     "latitude": 41.31, 
     "longitude": -72.923611111111
    }, 
    "id": "108541499165950", 
    "name": "New Haven, Connecticut"
   }, 
   "1": {
    "location": {
     "city": "Singapore", 
     "zip": "Singapore 138614", 
     "country": "Singapore", 
     "longitude": 103.77300819214, 
     "street": "6 College Avenue East, #B1-01", 
     "latitude": 1.3083388453214
    }, 
    "id": "237886262902734", 
    "name": "Yale-NUS College Admissions"
   }
  }
 }, 
 "648263085278553": {
  "location": {
   "0": {
    "location": {
     "latitude": 1.29306, 
     "longitude": 103.856, 
     "located_in": "240852582604992"
    }, 
    "id": "105565836144069", 
    "name": "Singapore"
   }
  }
 }, 
 "10202483153319551": {
  "location": {
   "0": {
    "location": {
     "latitude": 1.4078810143117, 
     "city": "Singapore", 
     "longitude": 103.74763040405, 
     "country": "Singapore"
    }, 
    "id": "135724386504363", 
    "name": "Novena"
   }
  }
 }, 
 "10206531248346631": {
  "profile": {
   "last_name": "Bhatnagar", 
   "relationship_status": "Single", 
   "locale": "en_GB", 
   "hometown": {
    "id": "105803266126801", 
    "name": "Calcutta, India"
   }, 
   "quotes": "\"Whatever doesn't kill you, simply makes you... stranger\" - Joker\r\n\"THIS... IS... SPARTA!\" - Leonidas\r\n\"Insanity is doing the same thing again and again and expecting different results\" - Albert Einstein\r\n\"You want forgiveness? Get religion\" - Peter Parker, Spider-Man 3\r\n\"Never apologize for the way you look\" - Joker", 
   "favorite_teams": [
    {
     "id": "7724542745", 
     "name": "Manchester United"
    }, 
    {
     "id": "190313434323691", 
     "name": "Indian Cricket Team"
    }, 
    {
     "id": "144917055340", 
     "name": "LA Lakers"
    }, 
    {
     "id": "86037497258", 
     "name": "Chelsea Football Club"
    }, 
    {
     "id": "67496419489", 
     "name": "Kolkata Knight Riders"
    }
   ], 
   "favorite_athletes": [
    {
     "id": "62975399193", 
     "name": "Michael Jordan"
    }, 
    {
     "id": "344128252278047", 
     "name": "Sachin Tendulkar"
    }, 
    {
     "id": "245323855526590", 
     "name": "Wayne Rooney"
    }, 
    {
     "id": "69025400418", 
     "name": "Kobe Bryant"
    }, 
    {
     "id": "64760994940", 
     "name": "Roger Federer"
    }, 
    {
     "id": "476903062441343", 
     "name": "Zach Mahon"
    }
   ], 
   "inspirational_people": [
    {
     "id": "106272096071533", 
     "name": "Richard Feynman"
    }, 
    {
     "id": "106267356071398", 
     "name": "Stephen Hawking"
    }, 
    {
     "id": "105978536100775", 
     "name": "Leonardo da Vinci"
    }, 
    {
     "id": "104083552960329", 
     "name": "Stephen Fry"
    }, 
    {
     "id": "107572265932578", 
     "name": "Albert Einstein"
    }
   ], 
   "timezone": 8, 
   "education": [
    {
     "school": {
      "id": "105923679439234", 
      "name": "Xinmin Secondary School"
     }, 
     "type": "High School", 
     "year": {
      "id": "142963519060927", 
      "name": "2010"
     }
    }, 
    {
     "school": {
      "id": "112642462084666", 
      "name": "Anglo-Chinese Junior College"
     }, 
     "type": "High School", 
     "year": {
      "id": "1565783193646423", 
      "name": "2012"
     }
    }, 
    {
     "school": {
      "id": "245411805579035", 
      "name": "Yale-NUS"
     }, 
     "type": "College", 
     "year": {
      "id": "185588044800194", 
      "name": "2017"
     }
    }
   ], 
   "id": "10206531248346631", 
   "first_name": "Parag", 
   "verified": true, 
   "political": "Against Politics... of any sort", 
   "sports": [
    {
     "id": "103154896390858", 
     "name": "Chess"
    }
   ], 
   "languages": [
    {
     "id": "106059522759137", 
     "name": "English"
    }, 
    {
     "id": "112969428713061", 
     "name": "Hindi"
    }, 
    {
     "id": "112491588765120", 
     "name": "Bengali"
    }, 
    {
     "id": "103755996330347", 
     "name": "Singlish"
    }
   ], 
   "religion": "Relatively Free Thinker", 
   "location": {
    "id": "105565836144069", 
    "name": "Singapore"
   }, 
   "email": "paragbhtngr@gmail.com", 
   "bio": "This you'll have to find out on your own ;)", 
   "birthday": "09/26/1993", 
   "link": "https://www.facebook.com/app_scoped_user_id/10206531248346631/", 
   "name": "Parag Bhatnagar", 
   "gender": "male", 
   "work": [
    {
     "position": {
      "id": "102167983158778", 
      "name": "Internship"
     }, 
     "start_date": "2014-06-01", 
     "employer": {
      "id": "300237213440655", 
      "name": "AdzCentral Pte Ltd"
     }
    }, 
    {
     "position": {
      "id": "108703555821060", 
      "name": "Intern"
     }, 
     "start_date": "2011-11-14", 
     "location": {
      "id": "101883206519751", 
      "name": "Singapore, Singapore"
     }, 
     "end_date": "2011-12-16", 
     "employer": {
      "id": "137562279600641", 
      "name": "Data Storage Institute"
     }
    }
   ], 
   "updated_time": "2015-03-20T16:10:36+0000", 
   "interested_in": [
    "female"
   ]
  }, 
  "keywords": {
   "surf": 0, 
   "kayaking": 0, 
   "roller coaster": 0, 
   "cruise": 0, 
   "snowboard": 0, 
   "outdoor": 0, 
   "skiing": 0, 
   "run": 7, 
   "sport": 2, 
   "mountain": 0, 
   "resort": 1, 
   "movie": 0, 
   "museum": 0, 
   "aquatic sports": 0, 
   "camp": 1, 
   "zoo": 1, 
   "romance": 0, 
   "religion": 0, 
   "hill": 2, 
   "beach": 1, 
   "temple": 0, 
   "spa": 4, 
   "shopping": 0, 
   "city": 2, 
   "dive": 0, 
   "wildlife": 0, 
   "urban exploration": 0, 
   "snorkel": 0, 
   "outdoor sports": 0, 
   "trek": 0, 
   "carnival": 0, 
   "hike": 0, 
   "casino": 0, 
   "yacht": 0, 
   "wind surfing": 0, 
   "jet ski": 0, 
   "mall": 7, 
   "indoor sports": 0, 
   "climb": 1, 
   "swimming": 0, 
   "history": 2
  }, 
  "location": {
   "0": {
    "location": {
     "city": "Manchester", 
     "zip": "M16 0RA", 
     "country": "United Kingdom", 
     "longitude": -2.2905264175992, 
     "street": "Sir Matt Busby Way", 
     "latitude": 53.463293438641
    }, 
    "id": "108738212520189", 
    "name": "Old Trafford"
   }, 
   "1": {
    "location": {
     "city": "Taipei", 
     "zip": "110", 
     "country": "Taiwan", 
     "longitude": 121.56478799751, 
     "street": "\u53f0\u5317\u5e02\u4fe1\u7fa9\u5340\u4fe1\u7fa9\u8def\u4e94\u6bb57\u865f85F", 
     "latitude": 25.033747614027
    }, 
    "id": "459687087387737", 
    "name": "Taipei 101 85\u6a13\u9ad8\u7a7a\u666f\u89c0\u9910\u5ef3-\u96a8\u610f\u9ce5\u5730\u65b9"
   }, 
   "2": {
    "location": {
     "city": "Taipei", 
     "zip": "110", 
     "country": "Taiwan", 
     "longitude": 121.56478799751, 
     "street": "\u53f0\u5317\u5e02\u4fe1\u7fa9\u5340\u4fe1\u7fa9\u8def\u4e94\u6bb57\u865f85F", 
     "latitude": 25.033747614027
    }, 
    "id": "459687087387737", 
    "name": "Taipei 101 85\u6a13\u9ad8\u7a7a\u666f\u89c0\u9910\u5ef3-\u96a8\u610f\u9ce5\u5730\u65b9"
   }, 
   "3": {
    "location": {
     "city": "Taipei", 
     "zip": "110", 
     "country": "Taiwan", 
     "longitude": 121.56478799751, 
     "street": "\u53f0\u5317\u5e02\u4fe1\u7fa9\u5340\u4fe1\u7fa9\u8def\u4e94\u6bb57\u865f85F", 
     "latitude": 25.033747614027
    }, 
    "id": "459687087387737", 
    "name": "Taipei 101 85\u6a13\u9ad8\u7a7a\u666f\u89c0\u9910\u5ef3-\u96a8\u610f\u9ce5\u5730\u65b9"
   }, 
   "4": {
    "location": {
     "city": "Taipei", 
     "zip": "110", 
     "country": "Taiwan", 
     "longitude": 121.56478799751, 
     "street": "\u53f0\u5317\u5e02\u4fe1\u7fa9\u5340\u4fe1\u7fa9\u8def\u4e94\u6bb57\u865f85F", 
     "latitude": 25.033747614027
    }, 
    "id": "459687087387737", 
    "name": "Taipei 101 85\u6a13\u9ad8\u7a7a\u666f\u89c0\u9910\u5ef3-\u96a8\u610f\u9ce5\u5730\u65b9"
   }, 
   "5": {
    "location": {
     "city": "Kent Ridge", 
     "zip": "119279", 
     "country": "Singapore", 
     "longitude": 103.77217930799, 
     "street": "50 Kent Ridge Crescent, National University of Singapore", 
     "latitude": 1.3017797541883
    }, 
    "id": "107498635997871", 
    "name": "University Cultural Centre"
   }, 
   "6": {
    "location": {
     "city": "Kent Ridge", 
     "zip": "119279", 
     "country": "Singapore", 
     "longitude": 103.77217930799, 
     "street": "50 Kent Ridge Crescent, National University of Singapore", 
     "latitude": 1.3017797541883
    }, 
    "id": "107498635997871", 
    "name": "University Cultural Centre"
   }, 
   "7": {
    "location": {
     "city": "Singapore", 
     "zip": "60", 
     "country": "Singapore", 
     "longitude": 103.7390463629, 
     "street": "1.3125,103.7444444", 
     "latitude": 1.3199466535782
    }, 
    "id": "189991624374145", 
    "name": "Pandan Reservoir"
   }, 
   "8": {
    "location": {
     "city": "Singapore", 
     "zip": "138614", 
     "country": "Singapore", 
     "longitude": 103.77312591916, 
     "street": "6 College Avenue East", 
     "latitude": 1.3083768512884
    }, 
    "id": "683119715051284", 
    "name": "Yale-NUS College"
   }, 
   "9": {
    "location": {
     "latitude": 1.32159865816, 
     "city": "Singapore", 
     "longitude": 103.858387794, 
     "country": "Singapore"
    }, 
    "id": "279424168838364", 
    "name": "NUS University Cultural Centre"
   }, 
   "10": {
    "location": {
     "latitude": 35, 
     "longitude": 135.75, 
     "located_in": "149998798354892"
    }, 
    "id": "106514006053250", 
    "name": "Kyoto, Japan"
   }, 
   "11": {
    "location": {
     "latitude": 35, 
     "longitude": 135.75, 
     "located_in": "149998798354892"
    }, 
    "id": "106514006053250", 
    "name": "Kyoto, Japan"
   }, 
   "12": {
    "location": {
     "latitude": 34.566666666667, 
     "longitude": 135.76666666667
    }, 
    "id": "103758582996549", 
    "name": "Nara Prefecture, Japan"
   }, 
   "13": {
    "location": {
     "latitude": 34.566666666667, 
     "longitude": 135.76666666667
    }, 
    "id": "103758582996549", 
    "name": "Nara Prefecture, Japan"
   }, 
   "14": {
    "location": {
     "latitude": 35, 
     "longitude": 135.75, 
     "located_in": "149998798354892"
    }, 
    "id": "106514006053250", 
    "name": "Kyoto, Japan"
   }, 
   "15": {
    "location": {
     "latitude": 35, 
     "longitude": 135.75, 
     "located_in": "149998798354892"
    }, 
    "id": "106514006053250", 
    "name": "Kyoto, Japan"
   }, 
   "16": {
    "location": {
     "latitude": 35, 
     "longitude": 135.75, 
     "located_in": "149998798354892"
    }, 
    "id": "106514006053250", 
    "name": "Kyoto, Japan"
   }, 
   "17": {
    "location": {
     "latitude": 35, 
     "longitude": 135.75, 
     "located_in": "149998798354892"
    }, 
    "id": "106514006053250", 
    "name": "Kyoto, Japan"
   }, 
   "18": {
    "location": {
     "city": "Singapore", 
     "zip": "138614", 
     "country": "Singapore", 
     "longitude": 103.77312591916, 
     "street": "6 College Avenue East", 
     "latitude": 1.3083768512884
    }, 
    "id": "683119715051284", 
    "name": "Yale-NUS College"
   }, 
   "19": {
    "location": {
     "latitude": 1.38148333333, 
     "city": "Pasir Ris", 
     "zip": "51", 
     "longitude": 103.9509, 
     "country": "Singapore"
    }, 
    "id": "142827132400805", 
    "name": "Pasir Ris Park"
   }, 
   "20": {
    "start_time": "2014-04-21T18:00:00+0800", 
    "location": "Yale-NUS College", 
    "id": "278836072288290", 
    "name": "MMXIV: Dinner and Dance"
   }, 
   "21": {
    "location": {
     "latitude": 35, 
     "longitude": 135.75, 
     "located_in": "149998798354892"
    }, 
    "id": "106514006053250", 
    "name": "Kyoto, Japan"
   }, 
   "22": {
    "location": {
     "latitude": 35, 
     "longitude": 135.75, 
     "located_in": "149998798354892"
    }, 
    "id": "106514006053250", 
    "name": "Kyoto, Japan"
   }, 
   "23": {
    "location": {
     "latitude": 35, 
     "longitude": 135.75, 
     "located_in": "149998798354892"
    }, 
    "id": "106514006053250", 
    "name": "Kyoto, Japan"
   }, 
   "24": {
    "location": {
     "latitude": 40.7142, 
     "longitude": -74.0064, 
     "located_in": "104048972965193"
    }, 
    "id": "108424279189115", 
    "name": "New York, New York"
   }, 
   "25": {
    "location": {
     "latitude": 40.7142, 
     "longitude": -74.0064, 
     "located_in": "104048972965193"
    }, 
    "id": "108424279189115", 
    "name": "New York, New York"
   }, 
   "26": {
    "location": {
     "city": "Singapore", 
     "zip": "237978", 
     "country": "Singapore", 
     "longitude": 103.83612196635, 
     "street": "2 Orchard Link", 
     "latitude": 1.3008029306419
    }, 
    "id": "168911576531523", 
    "name": "SCAPE"
   }, 
   "27": {
    "location": {
     "city": "Singapore", 
     "zip": "237978", 
     "country": "Singapore", 
     "longitude": 103.83612196635, 
     "street": "2 Orchard Link", 
     "latitude": 1.3008029306419
    }, 
    "id": "168911576531523", 
    "name": "SCAPE"
   }, 
   "28": {
    "location": {
     "latitude": 41.3611, 
     "longitude": -71.9669
    }, 
    "id": "112832862061865", 
    "name": "Mystic Seaport, Connecticut"
   }, 
   "29": {
    "location": {
     "latitude": 41.31, 
     "longitude": -72.923611111111
    }, 
    "id": "108541499165950", 
    "name": "New Haven, Connecticut"
   }, 
   "30": {
    "location": {
     "latitude": 41.31, 
     "longitude": -72.923611111111
    }, 
    "id": "108541499165950", 
    "name": "New Haven, Connecticut"
   }, 
   "31": {
    "location": {
     "city": "Singapore", 
     "zip": "esa informacion es clacificada", 
     "country": "Singapore", 
     "longitude": 103.83606552965, 
     "street": "2 Orchard Link", 
     "latitude": 1.3007442051088, 
     "located_in": "168911576531523"
    }, 
    "id": "133002123435912", 
    "name": "Scape Warehouse"
   }, 
   "32": {
    "location": {
     "city": "Singapore", 
     "zip": "esa informacion es clacificada", 
     "country": "Singapore", 
     "longitude": 103.83606552965, 
     "street": "2 Orchard Link", 
     "latitude": 1.3007442051088, 
     "located_in": "168911576531523"
    }, 
    "id": "133002123435912", 
    "name": "Scape Warehouse"
   }, 
   "33": {
    "location": {
     "city": "Singapore", 
     "zip": "esa informacion es clacificada", 
     "country": "Singapore", 
     "longitude": 103.83606552965, 
     "street": "2 Orchard Link", 
     "latitude": 1.3007442051088, 
     "located_in": "168911576531523"
    }, 
    "id": "133002123435912", 
    "name": "Scape Warehouse"
   }, 
   "34": {
    "location": {
     "city": "Singapore", 
     "zip": "esa informacion es clacificada", 
     "country": "Singapore", 
     "longitude": 103.83606552965, 
     "street": "2 Orchard Link", 
     "latitude": 1.3007442051088, 
     "located_in": "168911576531523"
    }, 
    "id": "133002123435912", 
    "name": "Scape Warehouse"
   }, 
   "35": {
    "location": {
     "city": "Singapore", 
     "zip": "237978", 
     "country": "Singapore", 
     "longitude": 103.83612196635, 
     "street": "2 Orchard Link", 
     "latitude": 1.3008029306419
    }, 
    "id": "168911576531523", 
    "name": "SCAPE"
   }, 
   "36": {
    "location": {
     "city": "Singapore", 
     "zip": "237978", 
     "country": "Singapore", 
     "longitude": 103.83612196635, 
     "street": "2 Orchard Link", 
     "latitude": 1.3008029306419
    }, 
    "id": "168911576531523", 
    "name": "SCAPE"
   }, 
   "37": {
    "location": {
     "city": "Singapore", 
     "zip": "237978", 
     "country": "Singapore", 
     "longitude": 103.83612196635, 
     "street": "2 Orchard Link", 
     "latitude": 1.3008029306419
    }, 
    "id": "168911576531523", 
    "name": "SCAPE"
   }, 
   "38": {
    "location": {
     "city": "Singapore", 
     "zip": "038981", 
     "country": "Singapore", 
     "longitude": 103.85570414539, 
     "street": "1 Esplanade Drive", 
     "latitude": 1.2894301765932
    }, 
    "id": "116177868444945", 
    "name": "Esplanade \u2013 Theatres On The Bay"
   }, 
   "39": {
    "location": {
     "city": "Singapore", 
     "zip": "Singapore 138614", 
     "country": "Singapore", 
     "longitude": 103.77300819214, 
     "street": "6 College Avenue East, #B1-01", 
     "latitude": 1.3083388453214
    }, 
    "id": "237886262902734", 
    "name": "Yale-NUS College Admissions"
   }, 
   "40": {
    "location": {
     "city": "Singapore", 
     "zip": "Singapore 138614", 
     "country": "Singapore", 
     "longitude": 103.77300819214, 
     "street": "6 College Avenue East, #B1-01", 
     "latitude": 1.3083388453214
    }, 
    "id": "237886262902734", 
    "name": "Yale-NUS College Admissions"
   }, 
   "41": {
    "location": {
     "city": "New Haven", 
     "zip": "06511", 
     "country": "United States", 
     "longitude": -72.92861155789, 
     "state": "CT", 
     "latitude": 41.309985165387
    }, 
    "id": "374809010319", 
    "name": "Yale University"
   }, 
   "42": {
    "location": {
     "city": "New Haven", 
     "zip": "06511", 
     "country": "United States", 
     "longitude": -72.92861155789, 
     "state": "CT", 
     "latitude": 41.309985165387
    }, 
    "id": "374809010319", 
    "name": "Yale University"
   }, 
   "43": {
    "location": {
     "city": "Mystic", 
     "zip": "06355", 
     "country": "United States", 
     "longitude": -71.953264097181, 
     "state": "CT", 
     "latitude": 41.373410917558
    }, 
    "id": "187099324676060", 
    "name": "Mystic Seaport & Aquarium"
   }, 
   "44": {
    "location": {
     "city": "Singapore", 
     "zip": "238868", 
     "country": "Singapore", 
     "longitude": 103.83174413786, 
     "street": "Singapore", 
     "latitude": 1.3049808735029
    }, 
    "id": "205236476178156", 
    "name": "Shaw Cinema Lido Orchard"
   }, 
   "45": {
    "location": {
     "city": "New York", 
     "zip": "10017-3823", 
     "country": "United States", 
     "longitude": -73.981394757146, 
     "state": "NY", 
     "street": "50 Vanderbilt Ave", 
     "latitude": 40.754845032317
    }, 
    "id": "120790267936584", 
    "name": "Yale Club of New York City"
   }, 
   "46": {
    "location": {
     "city": "New York", 
     "zip": "10017-3823", 
     "country": "United States", 
     "longitude": -73.981394757146, 
     "state": "NY", 
     "street": "50 Vanderbilt Ave", 
     "latitude": 40.754845032317
    }, 
    "id": "120790267936584", 
    "name": "Yale Club of New York City"
   }, 
   "47": {
    "location": {
     "city": "New York", 
     "zip": "10017-3823", 
     "country": "United States", 
     "longitude": -73.981394757146, 
     "state": "NY", 
     "street": "50 Vanderbilt Ave", 
     "latitude": 40.754845032317
    }, 
    "id": "120790267936584", 
    "name": "Yale Club of New York City"
   }, 
   "48": {
    "location": {
     "city": "New York", 
     "zip": "10017-3823", 
     "country": "United States", 
     "longitude": -73.981394757146, 
     "state": "NY", 
     "street": "50 Vanderbilt Ave", 
     "latitude": 40.754845032317
    }, 
    "id": "120790267936584", 
    "name": "Yale Club of New York City"
   }, 
   "49": {
    "id": "54779960819", 
    "name": "United Nations"
   }, 
   "50": {
    "id": "54779960819", 
    "name": "United Nations"
   }, 
   "51": {
    "location": {
     "city": "Singapore", 
     "zip": "238868", 
     "country": "Singapore", 
     "longitude": 103.83174413786, 
     "street": "Singapore", 
     "latitude": 1.3049808735029
    }, 
    "id": "205236476178156", 
    "name": "Shaw Cinema Lido Orchard"
   }, 
   "52": {
    "location": {
     "city": "New Haven", 
     "zip": "06511", 
     "country": "United States", 
     "longitude": -72.92861155789, 
     "state": "CT", 
     "latitude": 41.309985165387
    }, 
    "id": "374809010319", 
    "name": "Yale University"
   }, 
   "53": {
    "location": {
     "city": "New Haven", 
     "zip": "06511", 
     "country": "United States", 
     "longitude": -72.92861155789, 
     "state": "CT", 
     "latitude": 41.309985165387
    }, 
    "id": "374809010319", 
    "name": "Yale University"
   }, 
   "54": {
    "location": {
     "city": "New Haven", 
     "zip": "06511", 
     "country": "United States", 
     "longitude": -72.92861155789, 
     "state": "CT", 
     "latitude": 41.309985165387
    }, 
    "id": "374809010319", 
    "name": "Yale University"
   }, 
   "55": {
    "location": {
     "city": "New Haven", 
     "zip": "06511", 
     "country": "United States", 
     "longitude": -72.92861155789, 
     "state": "CT", 
     "latitude": 41.309985165387
    }, 
    "id": "374809010319", 
    "name": "Yale University"
   }, 
   "56": {
    "location": {
     "city": "New York", 
     "zip": "10017", 
     "country": "United States", 
     "longitude": -73.967328457081, 
     "state": "NY", 
     "latitude": 40.751532576283
    }, 
    "id": "414763148578146", 
    "name": "United Nations NYC"
   }, 
   "57": {
    "location": {
     "city": "Agawam", 
     "zip": "01001", 
     "country": "United States", 
     "longitude": -72.615667102052, 
     "state": "MA", 
     "latitude": 42.037672020075
    }, 
    "id": "52129033739", 
    "name": "Six Flags New England"
   }, 
   "58": {
    "location": {
     "city": "Agawam", 
     "zip": "01001", 
     "country": "United States", 
     "longitude": -72.615667102052, 
     "state": "MA", 
     "latitude": 42.037672020075
    }, 
    "id": "52129033739", 
    "name": "Six Flags New England"
   }, 
   "59": {
    "location": {
     "city": "Agawam", 
     "zip": "01001", 
     "country": "United States", 
     "longitude": -72.615667102052, 
     "state": "MA", 
     "latitude": 42.037672020075
    }, 
    "id": "52129033739", 
    "name": "Six Flags New England"
   }, 
   "60": {
    "location": {
     "city": "Agawam", 
     "zip": "01001", 
     "country": "United States", 
     "longitude": -72.615667102052, 
     "state": "MA", 
     "latitude": 42.037672020075
    }, 
    "id": "52129033739", 
    "name": "Six Flags New England"
   }, 
   "61": {
    "location": {
     "latitude": 41.31, 
     "longitude": -72.923611111111
    }, 
    "id": "108541499165950", 
    "name": "New Haven, Connecticut"
   }, 
   "62": {
    "location": {
     "latitude": 41.31, 
     "longitude": -72.923611111111
    }, 
    "id": "108541499165950", 
    "name": "New Haven, Connecticut"
   }, 
   "63": {
    "location": {
     "latitude": 41.31, 
     "longitude": -72.923611111111
    }, 
    "id": "108541499165950", 
    "name": "New Haven, Connecticut"
   }, 
   "64": {
    "location": {
     "latitude": 41.31, 
     "longitude": -72.923611111111
    }, 
    "id": "108541499165950", 
    "name": "New Haven, Connecticut"
   }, 
   "65": {
    "location": {
     "latitude": 41.31, 
     "longitude": -72.923611111111
    }, 
    "id": "108541499165950", 
    "name": "New Haven, Connecticut"
   }, 
   "66": {
    "location": {
     "city": "Singapore", 
     "zip": "Singapore 138614", 
     "country": "Singapore", 
     "longitude": 103.77300819214, 
     "street": "6 College Avenue East, #B1-01", 
     "latitude": 1.3083388453214
    }, 
    "id": "237886262902734", 
    "name": "Yale-NUS College Admissions"
   }, 
   "67": {
    "location": {
     "city": "Singapore", 
     "zip": "Singapore 138614", 
     "country": "Singapore", 
     "longitude": 103.77300819214, 
     "street": "6 College Avenue East, #B1-01", 
     "latitude": 1.3083388453214
    }, 
    "id": "237886262902734", 
    "name": "Yale-NUS College Admissions"
   }, 
   "68": {
    "location": {
     "city": "Calcutta", 
     "zip": "700016", 
     "country": "India", 
     "longitude": 88.35266625335, 
     "street": "Park Street", 
     "latitude": 22.552473360758
    }, 
    "id": "196626353711041", 
    "name": "Peter Cat"
   }, 
   "69": {
    "location": {
     "city": "Calcutta", 
     "zip": "700033", 
     "country": "India", 
     "longitude": 88.354139948432, 
     "street": "26, Prince Anwar Shah Road ", 
     "latitude": 22.502000247155
    }, 
    "id": "388168451271996", 
    "name": "Princeton Club"
   }, 
   "70": {
    "location": {
     "city": "Calcutta", 
     "zip": "700054", 
     "country": "India", 
     "longitude": 88.400796451252, 
     "street": "164/1 Maniktala Main Road, 9th Floor [Beside Apollo Gleaneagles Hospital EM Bypass", 
     "latitude": 22.577807488535
    }, 
    "id": "211106118905826", 
    "name": "Mani Square Mall"
   }, 
   "71": {
    "location": {
     "city": "Calcutta", 
     "zip": "700054", 
     "country": "India", 
     "longitude": 88.400796451252, 
     "street": "164/1 Maniktala Main Road, 9th Floor [Beside Apollo Gleaneagles Hospital EM Bypass", 
     "latitude": 22.577807488535
    }, 
    "id": "211106118905826", 
    "name": "Mani Square Mall"
   }, 
   "72": {
    "location": {
     "latitude": 1.29306, 
     "longitude": 103.856, 
     "located_in": "240852582604992"
    }, 
    "id": "105565836144069", 
    "name": "Singapore"
   }, 
   "73": {
    "location": {
     "latitude": 15.561284161277, 
     "city": "Goa", 
     "street": "Baga beach", 
     "longitude": 73.749374030573, 
     "country": "India"
    }, 
    "id": "169240516442006", 
    "name": "Brittos"
   }, 
   "74": {
    "location": {
     "city": "New Delhi", 
     "zip": "700001", 
     "country": "India", 
     "longitude": 88.3740687129, 
     "latitude": 22.5807088892, 
     "located_in": "106517799384578"
    }, 
    "id": "152164611567581", 
    "name": "Kolkata North"
   }, 
   "75": {
    "location": {
     "city": "Calcutta", 
     "zip": "700032", 
     "country": "India", 
     "longitude": 88.3678, 
     "street": "Jadavpur", 
     "latitude": 22.49281
    }, 
    "id": "141134689286150", 
    "name": "Jadavpur University"
   }, 
   "76": {
    "location": {
     "city": "Calcutta", 
     "zip": "700032", 
     "country": "India", 
     "longitude": 88.3678, 
     "street": "Jadavpur", 
     "latitude": 22.49281
    }, 
    "id": "141134689286150", 
    "name": "Jadavpur University"
   }, 
   "77": {
    "location": {
     "city": "Singapore", 
     "zip": "139745", 
     "country": "Singapore", 
     "longitude": 103.7852122182, 
     "street": "25 Dover Close East", 
     "latitude": 1.3030632205372
    }, 
    "id": "163968190300589", 
    "name": "Anglo-Chinese Junior College"
   }, 
   "78": {
    "location": {
     "city": "Singapore", 
     "zip": "309937", 
     "country": "Singapore", 
     "longitude": 103.83485252599, 
     "street": "80 Barker Road", 
     "latitude": 1.3200739314046
    }, 
    "id": "182437265126655", 
    "name": "ACS Oldham Hall"
   }, 
   "79": {
    "location": {
     "city": "Singapore", 
     "zip": "309937", 
     "country": "Singapore", 
     "longitude": 103.83485252599, 
     "street": "80 Barker Road", 
     "latitude": 1.3200739314046
    }, 
    "id": "182437265126655", 
    "name": "ACS Oldham Hall"
   }, 
   "80": {
    "location": {
     "city": "Calcutta", 
     "zip": "700054", 
     "country": "India", 
     "longitude": 88.400796451252, 
     "street": "164/1 Maniktala Main Road, 9th Floor [Beside Apollo Gleaneagles Hospital EM Bypass", 
     "latitude": 22.577807488535
    }, 
    "id": "211106118905826", 
    "name": "Mani Square Mall"
   }, 
   "81": {
    "location": {
     "city": "Calcutta", 
     "zip": "700054", 
     "country": "India", 
     "longitude": 88.400796451252, 
     "street": "164/1 Maniktala Main Road, 9th Floor [Beside Apollo Gleaneagles Hospital EM Bypass", 
     "latitude": 22.577807488535
    }, 
    "id": "211106118905826", 
    "name": "Mani Square Mall"
   }, 
   "82": {
    "location": {
     "latitude": 1.3025150002815, 
     "city": "Singapore", 
     "longitude": 103.87661539041, 
     "country": "Singapore"
    }, 
    "id": "137858336279207", 
    "name": "Kallang Bowl @ Kallang Leisure Park"
   }, 
   "83": {
    "location": {
     "latitude": 1.4078810143117, 
     "city": "Singapore", 
     "longitude": 103.74763040405, 
     "country": "Singapore"
    }, 
    "id": "135724386504363", 
    "name": "Novena"
   }, 
   "84": {
    "location": {
     "latitude": 1.4078810143117, 
     "city": "Singapore", 
     "longitude": 103.74763040405, 
     "country": "Singapore"
    }, 
    "id": "135724386504363", 
    "name": "Novena"
   }, 
   "85": {
    "location": {
     "latitude": 1.4078810143117, 
     "city": "Singapore", 
     "longitude": 103.74763040405, 
     "country": "Singapore"
    }, 
    "id": "135724386504363", 
    "name": "Novena"
   }, 
   "86": {
    "location": {
     "city": "Kallang", 
     "zip": "397693", 
     "country": "Singapore", 
     "longitude": 103.87662945522, 
     "street": "5 Stadium Walk", 
     "latitude": 1.3024890725972
    }, 
    "id": "168301239869584", 
    "name": "Leisure Park Kallang"
   }, 
   "87": {
    "location": {
     "city": "Singapore", 
     "zip": "538789", 
     "country": "Singapore", 
     "longitude": 103.883092, 
     "street": "11 Hougang Avenue 8  ", 
     "latitude": 1.37243
    }, 
    "id": "105923679439234", 
    "name": "Xinmin Secondary School"
   }, 
   "88": {
    "location": {
     "city": "Singapore", 
     "zip": "57", 
     "country": "Singapore", 
     "longitude": 103.84312850858, 
     "latitude": 1.3469430076173, 
     "located_in": "187522364593684"
    }, 
    "id": "205046542850478", 
    "name": "RI (JC)"
   }, 
   "89": {
    "location": {
     "city": "Singapore", 
     "zip": "57", 
     "country": "Singapore", 
     "longitude": 103.84312850858, 
     "latitude": 1.3469430076173, 
     "located_in": "187522364593684"
    }, 
    "id": "205046542850478", 
    "name": "RI (JC)"
   }, 
   "90": {
    "location": {
     "city": "Singapore", 
     "zip": "57", 
     "country": "Singapore", 
     "longitude": 103.84312850858, 
     "latitude": 1.3469430076173, 
     "located_in": "187522364593684"
    }, 
    "id": "205046542850478", 
    "name": "RI (JC)"
   }, 
   "91": {
    "location": {
     "city": "Singapore", 
     "zip": "57", 
     "country": "Singapore", 
     "longitude": 103.84312850858, 
     "latitude": 1.3469430076173, 
     "located_in": "187522364593684"
    }, 
    "id": "205046542850478", 
    "name": "RI (JC)"
   }, 
   "92": {
    "location": {
     "city": "Singapore", 
     "country": "Singapore", 
     "longitude": 103.84963430846, 
     "street": "Waterloo Street", 
     "latitude": 1.2986730187541, 
     "located_in": "192018340809091"
    }, 
    "id": "158576354291105", 
    "name": "Sentosa Island"
   }, 
   "93": {
    "location": {
     "city": "Singapore", 
     "country": "Singapore", 
     "longitude": 103.84963430846, 
     "street": "Waterloo Street", 
     "latitude": 1.2986730187541, 
     "located_in": "192018340809091"
    }, 
    "id": "158576354291105", 
    "name": "Sentosa Island"
   }, 
   "94": {
    "location": {
     "city": "Singapore", 
     "country": "Singapore", 
     "longitude": 103.84963430846, 
     "street": "Waterloo Street", 
     "latitude": 1.2986730187541, 
     "located_in": "192018340809091"
    }, 
    "id": "158576354291105", 
    "name": "Sentosa Island"
   }, 
   "95": {
    "location": {
     "city": "Singapore", 
     "country": "Singapore", 
     "longitude": 103.84963430846, 
     "street": "Waterloo Street", 
     "latitude": 1.2986730187541, 
     "located_in": "192018340809091"
    }, 
    "id": "158576354291105", 
    "name": "Sentosa Island"
   }, 
   "96": {
    "location": {
     "city": "Singapore", 
     "zip": "538789", 
     "country": "Singapore", 
     "longitude": 103.883092, 
     "street": "11 Hougang Avenue 8  ", 
     "latitude": 1.37243
    }, 
    "id": "105923679439234", 
    "name": "Xinmin Secondary School"
   }, 
   "97": {
    "location": {
     "city": "Singapore", 
     "zip": "538789", 
     "country": "Singapore", 
     "longitude": 103.883092, 
     "street": "11 Hougang Avenue 8  ", 
     "latitude": 1.37243
    }, 
    "id": "105923679439234", 
    "name": "Xinmin Secondary School"
   }
  }
 }, 
 "10204057010526825": {
  "location": {
   "0": {
    "location": {
     "city": "New Delhi", 
     "zip": "700001", 
     "country": "India", 
     "longitude": 88.3740687129, 
     "latitude": 22.5807088892, 
     "located_in": "106517799384578"
    }, 
    "id": "152164611567581", 
    "name": "Kolkata North"
   }
  }
 }, 
 "10206595685760507": {
  "location": {
   "0": {
    "location": {
     "city": "Singapore", 
     "zip": "60", 
     "country": "Singapore", 
     "longitude": 103.7390463629, 
     "street": "1.3125,103.7444444", 
     "latitude": 1.3199466535782
    }, 
    "id": "189991624374145", 
    "name": "Pandan Reservoir"
   }, 
   "1": {
    "location": {
     "latitude": 34.566666666667, 
     "longitude": 135.76666666667
    }, 
    "id": "103758582996549", 
    "name": "Nara Prefecture, Japan"
   }, 
   "2": {
    "location": {
     "latitude": 34.566666666667, 
     "longitude": 135.76666666667
    }, 
    "id": "103758582996549", 
    "name": "Nara Prefecture, Japan"
   }, 
   "3": {
    "location": {
     "latitude": 35, 
     "longitude": 135.75, 
     "located_in": "149998798354892"
    }, 
    "id": "106514006053250", 
    "name": "Kyoto, Japan"
   }, 
   "4": {
    "location": {
     "latitude": 35, 
     "longitude": 135.75, 
     "located_in": "149998798354892"
    }, 
    "id": "106514006053250", 
    "name": "Kyoto, Japan"
   }, 
   "5": {
    "location": {
     "latitude": 35, 
     "longitude": 135.75, 
     "located_in": "149998798354892"
    }, 
    "id": "106514006053250", 
    "name": "Kyoto, Japan"
   }, 
   "6": {
    "location": {
     "latitude": 35, 
     "longitude": 135.75, 
     "located_in": "149998798354892"
    }, 
    "id": "106514006053250", 
    "name": "Kyoto, Japan"
   }
  }
 }, 
 "10152655060572624": {
  "location": {
   "0": {
    "location": {
     "city": "Kent Ridge", 
     "zip": "119279", 
     "country": "Singapore", 
     "longitude": 103.77217930799, 
     "street": "50 Kent Ridge Crescent, National University of Singapore", 
     "latitude": 1.3017797541883
    }, 
    "id": "107498635997871", 
    "name": "University Cultural Centre"
   }
  }
 }, 
 "776318682442343": {
  "location": {
   "0": {
    "location": {
     "city": "Calcutta", 
     "zip": "700054", 
     "country": "India", 
     "longitude": 88.400796451252, 
     "street": "164/1 Maniktala Main Road, 9th Floor [Beside Apollo Gleaneagles Hospital EM Bypass", 
     "latitude": 22.577807488535
    }, 
    "id": "211106118905826", 
    "name": "Mani Square Mall"
   }, 
   "1": {
    "location": {
     "city": "Calcutta", 
     "zip": "700054", 
     "country": "India", 
     "longitude": 88.400796451252, 
     "street": "164/1 Maniktala Main Road, 9th Floor [Beside Apollo Gleaneagles Hospital EM Bypass", 
     "latitude": 22.577807488535
    }, 
    "id": "211106118905826", 
    "name": "Mani Square Mall"
   }
  }
 }, 
 "10152845677513353": {
  "location": {
   "0": {
    "location": {
     "city": "Singapore", 
     "zip": "Singapore 138614", 
     "country": "Singapore", 
     "longitude": 103.77300819214, 
     "street": "6 College Avenue East, #B1-01", 
     "latitude": 1.3083388453214
    }, 
    "id": "237886262902734", 
    "name": "Yale-NUS College Admissions"
   }
  }
 }, 
 "10155294063420057": {
  "location": {
   "0": {
    "location": {
     "latitude": 34.566666666667, 
     "longitude": 135.76666666667
    }, 
    "id": "103758582996549", 
    "name": "Nara Prefecture, Japan"
   }, 
   "1": {
    "location": {
     "latitude": 35, 
     "longitude": 135.75, 
     "located_in": "149998798354892"
    }, 
    "id": "106514006053250", 
    "name": "Kyoto, Japan"
   }, 
   "2": {
    "location": {
     "latitude": 35, 
     "longitude": 135.75, 
     "located_in": "149998798354892"
    }, 
    "id": "106514006053250", 
    "name": "Kyoto, Japan"
   }, 
   "3": {
    "location": {
     "latitude": 35, 
     "longitude": 135.75, 
     "located_in": "149998798354892"
    }, 
    "id": "106514006053250", 
    "name": "Kyoto, Japan"
   }, 
   "4": {
    "location": {
     "latitude": 35, 
     "longitude": 135.75, 
     "located_in": "149998798354892"
    }, 
    "id": "106514006053250", 
    "name": "Kyoto, Japan"
   }, 
   "5": {
    "location": {
     "city": "Singapore", 
     "zip": "Singapore 138614", 
     "country": "Singapore", 
     "longitude": 103.77300819214, 
     "street": "6 College Avenue East, #B1-01", 
     "latitude": 1.3083388453214
    }, 
    "id": "237886262902734", 
    "name": "Yale-NUS College Admissions"
   }
  }
 }, 
 "10152480283108239": {
  "location": {
   "0": {
    "location": {
     "latitude": 41.31, 
     "longitude": -72.923611111111
    }, 
    "id": "108541499165950", 
    "name": "New Haven, Connecticut"
   }
  }
 }, 
 "10152825164578160": {
  "location": {
   "0": {
    "location": {
     "latitude": 34.566666666667, 
     "longitude": 135.76666666667
    }, 
    "id": "103758582996549", 
    "name": "Nara Prefecture, Japan"
   }, 
   "1": {
    "location": {
     "latitude": 35, 
     "longitude": 135.75, 
     "located_in": "149998798354892"
    }, 
    "id": "106514006053250", 
    "name": "Kyoto, Japan"
   }, 
   "2": {
    "location": {
     "latitude": 35, 
     "longitude": 135.75, 
     "located_in": "149998798354892"
    }, 
    "id": "106514006053250", 
    "name": "Kyoto, Japan"
   }, 
   "3": {
    "location": {
     "latitude": 35, 
     "longitude": 135.75, 
     "located_in": "149998798354892"
    }, 
    "id": "106514006053250", 
    "name": "Kyoto, Japan"
   }, 
   "4": {
    "location": {
     "latitude": 35, 
     "longitude": 135.75, 
     "located_in": "149998798354892"
    }, 
    "id": "106514006053250", 
    "name": "Kyoto, Japan"
   }, 
   "5": {
    "location": {
     "city": "Singapore", 
     "zip": "238868", 
     "country": "Singapore", 
     "longitude": 103.83174413786, 
     "street": "Singapore", 
     "latitude": 1.3049808735029
    }, 
    "id": "205236476178156", 
    "name": "Shaw Cinema Lido Orchard"
   }
  }
 }, 
 "10202796942324426": {
  "location": {
   "0": {
    "location": {
     "city": "Calcutta", 
     "zip": "700032", 
     "country": "India", 
     "longitude": 88.3678, 
     "street": "Jadavpur", 
     "latitude": 22.49281
    }, 
    "id": "141134689286150", 
    "name": "Jadavpur University"
   }
  }
 }, 
 "10152647884826035": {
  "location": {
   "0": {
    "location": {
     "latitude": 1.38148333333, 
     "city": "Pasir Ris", 
     "zip": "51", 
     "longitude": 103.9509, 
     "country": "Singapore"
    }, 
    "id": "142827132400805", 
    "name": "Pasir Ris Park"
   }, 
   "1": {
    "location": {
     "latitude": 41.31, 
     "longitude": -72.923611111111
    }, 
    "id": "108541499165950", 
    "name": "New Haven, Connecticut"
   }, 
   "2": {
    "location": {
     "latitude": 41.31, 
     "longitude": -72.923611111111
    }, 
    "id": "108541499165950", 
    "name": "New Haven, Connecticut"
   }, 
   "3": {
    "location": {
     "latitude": 41.31, 
     "longitude": -72.923611111111
    }, 
    "id": "108541499165950", 
    "name": "New Haven, Connecticut"
   }
  }
 }, 
 "10204074332474714": {
  "location": {
   "0": {
    "location": {
     "city": "Singapore", 
     "zip": "57", 
     "country": "Singapore", 
     "longitude": 103.84312850858, 
     "latitude": 1.3469430076173, 
     "located_in": "187522364593684"
    }, 
    "id": "205046542850478", 
    "name": "RI (JC)"
   }, 
   "1": {
    "location": {
     "city": "Singapore", 
     "zip": "57", 
     "country": "Singapore", 
     "longitude": 103.84312850858, 
     "latitude": 1.3469430076173, 
     "located_in": "187522364593684"
    }, 
    "id": "205046542850478", 
    "name": "RI (JC)"
   }, 
   "2": {
    "location": {
     "city": "Singapore", 
     "zip": "57", 
     "country": "Singapore", 
     "longitude": 103.84312850858, 
     "latitude": 1.3469430076173, 
     "located_in": "187522364593684"
    }, 
    "id": "205046542850478", 
    "name": "RI (JC)"
   }
  }
 }, 
 "710052499030480": {
  "location": {
   "0": {
    "location": {
     "city": "Taipei", 
     "zip": "110", 
     "country": "Taiwan", 
     "longitude": 121.56478799751, 
     "street": "\u53f0\u5317\u5e02\u4fe1\u7fa9\u5340\u4fe1\u7fa9\u8def\u4e94\u6bb57\u865f85F", 
     "latitude": 25.033747614027
    }, 
    "id": "459687087387737", 
    "name": "Taipei 101 85\u6a13\u9ad8\u7a7a\u666f\u89c0\u9910\u5ef3-\u96a8\u610f\u9ce5\u5730\u65b9"
   }
  }
 }, 
 "10204884562367225": {
  "location": {
   "0": {
    "location": {
     "latitude": 1.38148333333, 
     "city": "Pasir Ris", 
     "zip": "51", 
     "longitude": 103.9509, 
     "country": "Singapore"
    }, 
    "id": "142827132400805", 
    "name": "Pasir Ris Park"
   }
  }
 }, 
 "10204924215278329": {
  "location": {
   "0": {
    "location": {
     "city": "Singapore", 
     "zip": "538789", 
     "country": "Singapore", 
     "longitude": 103.883092, 
     "street": "11 Hougang Avenue 8  ", 
     "latitude": 1.37243
    }, 
    "id": "105923679439234", 
    "name": "Xinmin Secondary School"
   }
  }
 }, 
 "10206332454540924": {
  "location": {
   "0": {
    "location": {
     "city": "Singapore", 
     "zip": "57", 
     "country": "Singapore", 
     "longitude": 103.84312850858, 
     "latitude": 1.3469430076173, 
     "located_in": "187522364593684"
    }, 
    "id": "205046542850478", 
    "name": "RI (JC)"
   }, 
   "1": {
    "location": {
     "city": "Singapore", 
     "zip": "57", 
     "country": "Singapore", 
     "longitude": 103.84312850858, 
     "latitude": 1.3469430076173, 
     "located_in": "187522364593684"
    }, 
    "id": "205046542850478", 
    "name": "RI (JC)"
   }, 
   "2": {
    "location": {
     "city": "Singapore", 
     "zip": "57", 
     "country": "Singapore", 
     "longitude": 103.84312850858, 
     "latitude": 1.3469430076173, 
     "located_in": "187522364593684"
    }, 
    "id": "205046542850478", 
    "name": "RI (JC)"
   }
  }
 }, 
 "799813400112657": {
  "location": {
   "0": {
    "location": {
     "city": "New Delhi", 
     "zip": "700001", 
     "country": "India", 
     "longitude": 88.3740687129, 
     "latitude": 22.5807088892, 
     "located_in": "106517799384578"
    }, 
    "id": "152164611567581", 
    "name": "Kolkata North"
   }
  }
 }, 
 "10205237009978146": {
  "location": {
   "0": {
    "location": {
     "latitude": 1.38148333333, 
     "city": "Pasir Ris", 
     "zip": "51", 
     "longitude": 103.9509, 
     "country": "Singapore"
    }, 
    "id": "142827132400805", 
    "name": "Pasir Ris Park"
   }
  }
 }, 
 "10153185411442840": {
  "location": {
   "0": {
    "location": {
     "latitude": 1.32159865816, 
     "city": "Singapore", 
     "longitude": 103.858387794, 
     "country": "Singapore"
    }, 
    "id": "279424168838364", 
    "name": "NUS University Cultural Centre"
   }
  }
 }
}