{
 "0": {
  "location": {
   "city": "Singapore", 
   "zip": "449035", 
   "country": "Singapore", 
   "longitude": 103.9198217678, 
   "street": "20 Marine Vista", 
   "latitude": 1.3062203063941
  }, 
  "id": "171751489503613", 
  "name": "Victoria Junior College"
 }, 
 "1": {
  "location": {
   "city": "Singapore", 
   "zip": "449035", 
   "country": "Singapore", 
   "longitude": 103.9198217678, 
   "street": "20 Marine Vista", 
   "latitude": 1.3062203063941
  }, 
  "id": "171751489503613", 
  "name": "Victoria Junior College"
 }, 
 "2": {
  "location": {
   "city": "Singapore", 
   "zip": "427436", 
   "country": "Singapore", 
   "longitude": 103.90022995792, 
   "street": "159 Joo Chiat Road, Singapore ", 
   "latitude": 1.3126579035635
  }, 
  "id": "340828119325266", 
  "name": "Long Ph\u1ee5ng Vietnamese Restaurant"
 }, 
 "3": {
  "location": {
   "city": "Singapore", 
   "zip": "081007", 
   "country": "Singapore", 
   "longitude": 103.84339729549, 
   "street": "APT/BLK 7 TANJONG PAGAR PLAZA #01-104B", 
   "latitude": 1.2767333055917
  }, 
  "id": "148746791950619", 
  "name": "Ikkousha Hakata Ramen Singapore - \u535a\u591a\u4e00\u5e78\u820e"
 }, 
 "4": {
  "location": {
   "city": "Singapore", 
   "zip": "081007", 
   "country": "Singapore", 
   "longitude": 103.84339729549, 
   "street": "APT/BLK 7 TANJONG PAGAR PLAZA #01-104B", 
   "latitude": 1.2767333055917
  }, 
  "id": "148746791950619", 
  "name": "Ikkousha Hakata Ramen Singapore - \u535a\u591a\u4e00\u5e78\u820e"
 }, 
 "5": {
  "location": {
   "latitude": 1.3117748332183, 
   "city": "Singapore", 
   "zip": "27", 
   "longitude": 103.79538306369, 
   "country": "Singapore"
  }, 
  "id": "413299885392158", 
  "name": "D'goodcafe"
 }, 
 "6": {
  "location": {
   "latitude": 1.3117748332183, 
   "city": "Singapore", 
   "zip": "27", 
   "longitude": 103.79538306369, 
   "country": "Singapore"
  }, 
  "id": "413299885392158", 
  "name": "D'goodcafe"
 }, 
 "7": {
  "location": {
   "latitude": 1.3117748332183, 
   "city": "Singapore", 
   "zip": "27", 
   "longitude": 103.79538306369, 
   "country": "Singapore"
  }, 
  "id": "413299885392158", 
  "name": "D'goodcafe"
 }, 
 "8": {
  "location": {
   "latitude": 1.3117748332183, 
   "city": "Singapore", 
   "zip": "27", 
   "longitude": 103.79538306369, 
   "country": "Singapore"
  }, 
  "id": "413299885392158", 
  "name": "D'goodcafe"
 }, 
 "9": {
  "location": {
   "latitude": 1.3117748332183, 
   "city": "Singapore", 
   "zip": "27", 
   "longitude": 103.79538306369, 
   "country": "Singapore"
  }, 
  "id": "413299885392158", 
  "name": "D'goodcafe"
 }, 
 "10": {
  "location": {
   "latitude": 1.3117748332183, 
   "city": "Singapore", 
   "zip": "27", 
   "longitude": 103.79538306369, 
   "country": "Singapore"
  }, 
  "id": "413299885392158", 
  "name": "D'goodcafe"
 }, 
 "11": {
  "location": {
   "latitude": 1.3117748332183, 
   "city": "Singapore", 
   "zip": "27", 
   "longitude": 103.79538306369, 
   "country": "Singapore"
  }, 
  "id": "413299885392158", 
  "name": "D'goodcafe"
 }, 
 "12": {
  "location": {
   "latitude": 1.3117748332183, 
   "city": "Singapore", 
   "zip": "27", 
   "longitude": 103.79538306369, 
   "country": "Singapore"
  }, 
  "id": "413299885392158", 
  "name": "D'goodcafe"
 }, 
 "13": {
  "location": {
   "latitude": 1.3117748332183, 
   "city": "Singapore", 
   "zip": "27", 
   "longitude": 103.79538306369, 
   "country": "Singapore"
  }, 
  "id": "413299885392158", 
  "name": "D'goodcafe"
 }, 
 "14": {
  "location": {
   "latitude": 1.3117748332183, 
   "city": "Singapore", 
   "zip": "27", 
   "longitude": 103.79538306369, 
   "country": "Singapore"
  }, 
  "id": "413299885392158", 
  "name": "D'goodcafe"
 }, 
 "15": {
  "location": {
   "city": "Singapore", 
   "zip": "138597 ", 
   "country": "Singapore", 
   "longitude": 103.77375702787, 
   "street": "Tembusu College Office University Town, NUS 26 College Avenue East, #B1-01", 
   "latitude": 1.3059758209752
  }, 
  "id": "131344286953020", 
  "name": "Tembusu College"
 }, 
 "16": {
  "location": {
   "city": "Singapore", 
   "zip": "138597 ", 
   "country": "Singapore", 
   "longitude": 103.77375702787, 
   "street": "Tembusu College Office University Town, NUS 26 College Avenue East, #B1-01", 
   "latitude": 1.3059758209752
  }, 
  "id": "131344286953020", 
  "name": "Tembusu College"
 }, 
 "17": {
  "location": {
   "city": "Singapore", 
   "zip": "138597 ", 
   "country": "Singapore", 
   "longitude": 103.77375702787, 
   "street": "Tembusu College Office University Town, NUS 26 College Avenue East, #B1-01", 
   "latitude": 1.3059758209752
  }, 
  "id": "131344286953020", 
  "name": "Tembusu College"
 }, 
 "18": {
  "location": {
   "city": "Singapore", 
   "zip": "138597 ", 
   "country": "Singapore", 
   "longitude": 103.77375702787, 
   "street": "Tembusu College Office University Town, NUS 26 College Avenue East, #B1-01", 
   "latitude": 1.3059758209752
  }, 
  "id": "131344286953020", 
  "name": "Tembusu College"
 }, 
 "19": {
  "location": {
   "city": "Singapore", 
   "zip": "179021", 
   "country": "Singapore", 
   "longitude": 103.845152802, 
   "street": "3B River Valley Road. Clarke Quay, The Foundry. #01-08", 
   "latitude": 1.2906630130189
  }, 
  "id": "503767193032453", 
  "name": "f.Club Singapore"
 }, 
 "20": {
  "location": {
   "city": "Singapore", 
   "zip": "737919", 
   "country": "Singapore", 
   "longitude": 103.78617114911, 
   "street": "25 Rosewood Drive", 
   "latitude": 1.430426171837
  }, 
  "id": "129518463783873", 
  "name": "Casablanca Condo"
 }, 
 "21": {
  "location": {
   "latitude": 1.3026154204401, 
   "city": "Singapore", 
   "street": "Kallang Bahru", 
   "longitude": 103.87650841638, 
   "country": "Singapore"
  }, 
  "id": "194417320585972", 
  "name": "Kallang"
 }, 
 "22": {
  "location": {
   "city": "Singapore", 
   "zip": "119077", 
   "country": "Singapore", 
   "longitude": 103.77198169233, 
   "street": "21 Lower Kent Ridge Road, Singapore 119077", 
   "latitude": 1.2995158873859
  }, 
  "id": "176017608539", 
  "name": "National University of Singapore"
 }, 
 "23": {
  "location": {
   "city": "Singapore", 
   "zip": "119077", 
   "country": "Singapore", 
   "longitude": 103.77198169233, 
   "street": "21 Lower Kent Ridge Road, Singapore 119077", 
   "latitude": 1.2995158873859
  }, 
  "id": "176017608539", 
  "name": "National University of Singapore"
 }, 
 "24": {
  "location": {
   "city": "Singapore", 
   "zip": "119077", 
   "country": "Singapore", 
   "longitude": 103.77198169233, 
   "street": "21 Lower Kent Ridge Road, Singapore 119077", 
   "latitude": 1.2995158873859
  }, 
  "id": "176017608539", 
  "name": "National University of Singapore"
 }, 
 "25": {
  "location": {
   "city": "Singapore", 
   "zip": "119077", 
   "country": "Singapore", 
   "longitude": 103.77198169233, 
   "street": "21 Lower Kent Ridge Road, Singapore 119077", 
   "latitude": 1.2995158873859
  }, 
  "id": "176017608539", 
  "name": "National University of Singapore"
 }, 
 "26": {
  "location": {
   "city": "Singapore", 
   "zip": "119077", 
   "country": "Singapore", 
   "longitude": 103.77198169233, 
   "street": "21 Lower Kent Ridge Road, Singapore 119077", 
   "latitude": 1.2995158873859
  }, 
  "id": "176017608539", 
  "name": "National University of Singapore"
 }, 
 "27": {
  "location": {
   "city": "Singapore", 
   "zip": "119077", 
   "country": "Singapore", 
   "longitude": 103.77198169233, 
   "street": "21 Lower Kent Ridge Road, Singapore 119077", 
   "latitude": 1.2995158873859
  }, 
  "id": "176017608539", 
  "name": "National University of Singapore"
 }, 
 "28": {
  "location": {
   "city": "Singapore", 
   "zip": "119077", 
   "country": "Singapore", 
   "longitude": 103.77198169233, 
   "street": "21 Lower Kent Ridge Road, Singapore 119077", 
   "latitude": 1.2995158873859
  }, 
  "id": "176017608539", 
  "name": "National University of Singapore"
 }, 
 "29": {
  "location": {
   "city": "Singapore", 
   "zip": "119077", 
   "country": "Singapore", 
   "longitude": 103.77198169233, 
   "street": "21 Lower Kent Ridge Road, Singapore 119077", 
   "latitude": 1.2995158873859
  }, 
  "id": "176017608539", 
  "name": "National University of Singapore"
 }, 
 "30": {
  "location": {
   "latitude": 1.3053522550131, 
   "city": "Singapore", 
   "longitude": 103.7729628717, 
   "country": "Singapore"
  }, 
  "id": "233862253325510", 
  "name": "Ngee Ann Kongsi Auditorium - Utown"
 }, 
 "31": {
  "location": {
   "city": "Singapore", 
   "zip": "138607", 
   "country": "Singapore", 
   "longitude": 103.77340246806, 
   "street": "2 College Avenue West, #01-02 Stephen Riady Centre", 
   "latitude": 1.3048918342112
  }, 
  "id": "161192807267810", 
  "name": "NUS UTown"
 }, 
 "32": {
  "location": {
   "city": "Singapore", 
   "zip": "138607", 
   "country": "Singapore", 
   "longitude": 103.77340246806, 
   "street": "2 College Avenue West, #01-02 Stephen Riady Centre", 
   "latitude": 1.3048918342112
  }, 
  "id": "161192807267810", 
  "name": "NUS UTown"
 }, 
 "33": {
  "location": {
   "city": "Singapore", 
   "zip": "138607", 
   "country": "Singapore", 
   "longitude": 103.77340246806, 
   "street": "2 College Avenue West, #01-02 Stephen Riady Centre", 
   "latitude": 1.3048918342112
  }, 
  "id": "161192807267810", 
  "name": "NUS UTown"
 }, 
 "34": {
  "location": {
   "city": "Singapore", 
   "zip": "119244", 
   "country": "Singapore", 
   "longitude": 103.77328133505, 
   "street": "11 Kent Ridge Drive", 
   "latitude": 1.2930902768441
  }, 
  "id": "154949914560762", 
  "name": "Shaw Foundation Alumni House"
 }, 
 "35": {
  "location": {
   "city": "Singapore", 
   "zip": "119244", 
   "country": "Singapore", 
   "longitude": 103.77328133505, 
   "street": "11 Kent Ridge Drive", 
   "latitude": 1.2930902768441
  }, 
  "id": "154949914560762", 
  "name": "Shaw Foundation Alumni House"
 }, 
 "36": {
  "start_time": "2013-07-05T12:00:00+0400", 
  "location": "Meydan IMAX Theatre", 
  "id": "611735025517280", 
  "name": "IGN Convention"
 }, 
 "37": {
  "location": {
   "latitude": 25.090741913619, 
   "city": "Dubai", 
   "longitude": 55.145028489179, 
   "country": "United Arab Emirates"
  }, 
  "id": "396360967052558", 
  "name": "MEFCC Comic Con in Dubai"
 }, 
 "38": {
  "location": {
   "latitude": 25.153854673778, 
   "city": "Dubai", 
   "longitude": 55.375724083164, 
   "country": "United Arab Emirates"
  }, 
  "id": "108226382533047", 
  "name": "Dubai Modern High School"
 }, 
 "39": {
  "location": {
   "latitude": 25.153455689762, 
   "city": "Dubai", 
   "longitude": 55.375977394236, 
   "country": "United Arab Emirates"
  }, 
  "id": "211589962195554", 
  "name": "Dubai Modern High"
 }, 
 "40": {
  "location": {
   "latitude": 25.153854673778, 
   "city": "Dubai", 
   "longitude": 55.375724083164, 
   "country": "United Arab Emirates"
  }, 
  "id": "108226382533047", 
  "name": "Dubai Modern High School"
 }, 
 "41": {
  "location": {
   "latitude": 25.153854673778, 
   "city": "Dubai", 
   "longitude": 55.375724083164, 
   "country": "United Arab Emirates"
  }, 
  "id": "108226382533047", 
  "name": "Dubai Modern High School"
 }, 
 "42": {
  "location": {
   "latitude": 25.153854673778, 
   "city": "Dubai", 
   "longitude": 55.375724083164, 
   "country": "United Arab Emirates"
  }, 
  "id": "108226382533047", 
  "name": "Dubai Modern High School"
 }, 
 "43": {
  "location": {
   "latitude": 25.153854673778, 
   "city": "Dubai", 
   "longitude": 55.375724083164, 
   "country": "United Arab Emirates"
  }, 
  "id": "108226382533047", 
  "name": "Dubai Modern High School"
 }, 
 "44": {
  "location": {
   "latitude": 25.153854673778, 
   "city": "Dubai", 
   "longitude": 55.375724083164, 
   "country": "United Arab Emirates"
  }, 
  "id": "108226382533047", 
  "name": "Dubai Modern High School"
 }, 
 "45": {
  "location": {
   "latitude": 25.153854673778, 
   "city": "Dubai", 
   "longitude": 55.375724083164, 
   "country": "United Arab Emirates"
  }, 
  "id": "108226382533047", 
  "name": "Dubai Modern High School"
 }, 
 "46": {
  "location": {
   "latitude": 25.153854673778, 
   "city": "Dubai", 
   "longitude": 55.375724083164, 
   "country": "United Arab Emirates"
  }, 
  "id": "108226382533047", 
  "name": "Dubai Modern High School"
 }, 
 "47": {
  "location": {
   "latitude": 25.153854673778, 
   "city": "Dubai", 
   "longitude": 55.375724083164, 
   "country": "United Arab Emirates"
  }, 
  "id": "108226382533047", 
  "name": "Dubai Modern High School"
 }, 
 "48": {
  "location": {
   "latitude": 25.09099737217, 
   "city": "Dubai", 
   "longitude": 55.145068843242, 
   "country": "United Arab Emirates"
  }, 
  "id": "201915756516496", 
  "name": "Dubai International Marine Club (DIMC)."
 }, 
 "49": {
  "location": {
   "latitude": 25.09099737217, 
   "city": "Dubai", 
   "longitude": 55.145068843242, 
   "country": "United Arab Emirates"
  }, 
  "id": "201915756516496", 
  "name": "Dubai International Marine Club (DIMC)."
 }, 
 "50": {
  "location": {
   "latitude": 25.153455689762, 
   "city": "Dubai", 
   "longitude": 55.375977394236, 
   "country": "United Arab Emirates"
  }, 
  "id": "211589962195554", 
  "name": "Dubai Modern High"
 }, 
 "51": {
  "location": {
   "latitude": 1.29306, 
   "longitude": 103.856, 
   "located_in": "240852582604992"
  }, 
  "id": "101883206519751", 
  "name": "Singapore, Singapore"
 }, 
 "52": {
  "location": {
   "latitude": 1.29306, 
   "longitude": 103.856, 
   "located_in": "240852582604992"
  }, 
  "id": "101883206519751", 
  "name": "Singapore, Singapore"
 }, 
 "53": {
  "location": {
   "latitude": 1.29306, 
   "longitude": 103.856, 
   "located_in": "240852582604992"
  }, 
  "id": "101883206519751", 
  "name": "Singapore, Singapore"
 }, 
 "54": {
  "location": {
   "latitude": 1.29306, 
   "longitude": 103.856, 
   "located_in": "240852582604992"
  }, 
  "id": "101883206519751", 
  "name": "Singapore, Singapore"
 }, 
 "55": {
  "location": {
   "latitude": 1.29306, 
   "longitude": 103.856, 
   "located_in": "240852582604992"
  }, 
  "id": "101883206519751", 
  "name": "Singapore, Singapore"
 }, 
 "56": {
  "location": {
   "latitude": 1.29306, 
   "longitude": 103.856, 
   "located_in": "240852582604992"
  }, 
  "id": "101883206519751", 
  "name": "Singapore, Singapore"
 }, 
 "57": {
  "location": {
   "latitude": 1.29306, 
   "longitude": 103.856, 
   "located_in": "240852582604992"
  }, 
  "id": "101883206519751", 
  "name": "Singapore, Singapore"
 }, 
 "58": {
  "location": {
   "city": "Abu Dhabi", 
   "zip": "02", 
   "country": "United Arab Emirates", 
   "longitude": 54.62641, 
   "street": "Yas Island", 
   "latitude": 24.31561
  }, 
  "id": "232001520191613", 
  "name": "Yas Island, Abu Dhab\u0131"
 }, 
 "59": {
  "location": {
   "city": "Abu Dhabi", 
   "zip": "02", 
   "country": "United Arab Emirates", 
   "longitude": 54.62641, 
   "street": "Yas Island", 
   "latitude": 24.31561
  }, 
  "id": "232001520191613", 
  "name": "Yas Island, Abu Dhab\u0131"
 }, 
 "60": {
  "location": {
   "city": "Abu Dhabi", 
   "zip": "02", 
   "country": "United Arab Emirates", 
   "longitude": 54.62641, 
   "street": "Yas Island", 
   "latitude": 24.31561
  }, 
  "id": "232001520191613", 
  "name": "Yas Island, Abu Dhab\u0131"
 }, 
 "61": {
  "location": {
   "latitude": 24.46647255752, 
   "city": "Abu Dhabi", 
   "street": "Yas Island", 
   "longitude": 54.598307982243, 
   "country": "United Arab Emirates"
  }, 
  "id": "118105734913664", 
  "name": "Yas Island"
 }, 
 "62": {
  "location": {
   "latitude": 24.46647255752, 
   "city": "Abu Dhabi", 
   "street": "Yas Island", 
   "longitude": 54.598307982243, 
   "country": "United Arab Emirates"
  }, 
  "id": "118105734913664", 
  "name": "Yas Island"
 }, 
 "name": {}
}